source,name,category,average_rating,price_range,latitude,longitude,description
OpenStreetMap,Mayflower Inn,hotel,,,10.3171084,123.8920982,
OpenStreetMap,Kaffee Rafael,cafe,,,10.3156399,123.8921272,
OpenStreetMap,Yayoy's Grill & Resto Bar,restaurant,,,10.3127392,123.8903028,
OpenStreetMap,STK ta Bay,restaurant,,,10.3128918,123.8902456,
OpenStreetMap,Cyma Restuarant,restaurant,,,10.3184556,123.9059813,
OpenStreetMap,Coffee Bean & Tea Leaf,cafe,,,10.3187219,123.905898,
OpenStreetMap,Prince Court Hotel,motel,,,10.3194457,123.9185771,
OpenStreetMap,Hotel Sangelec Travellers Inn,motel,,,10.3305992,123.9480961,
OpenStreetMap,Laguna Cafe,restaurant,,,10.3182238,123.905502,
OpenStreetMap,Starbucks,cafe,,,10.3193309,123.9052112,
OpenStreetMap,Kaishu,restaurant,,,10.312742,124.024079,
OpenStreetMap,AA's BBQ Restaurant,restaurant,,,10.3043543,123.9601893,
OpenStreetMap,Queensland Manor,motel,,,10.307699,123.909542,
OpenStreetMap,Lighthouse Restaurant,restaurant,,,10.3109039,123.9029052,
OpenStreetMap,The New White Gold House Rest,restaurant,,,10.306416,123.9101145,
OpenStreetMap,Cesario Inn,motel,,,10.3223148,123.9679332,
OpenStreetMap,Boosog Restaurant,restaurant,,,10.3123242,123.8949128,
OpenStreetMap,Cafe 5R resto,restaurant,,,11.2743451,124.0637653,
OpenStreetMap,Lola Nitang Pension House,guest_house,,,10.4815683,123.4200544,
OpenStreetMap,La Grotta Italian Restaurant,restaurant,,,10.4913684,123.399668,
OpenStreetMap,SJRI Guest House,guest_house,,,10.4916688,123.4118371,
OpenStreetMap,Moms Small Hotel And Restaurant,restaurant,,,10.4863315,123.415041,
OpenStreetMap,A&C Pension Haus,guest_house,,,10.4836918,123.4222035,
OpenStreetMap,YM Business Inn,guest_house,,,10.4840171,123.4178356,
OpenStreetMap,Waddy's Place,restaurant,,,10.5221355,123.3267662,
OpenStreetMap,Jilla's Cafe,cafe,,,10.5223689,123.3256698,
OpenStreetMap,Nabatang Peak,picnic_site,,,10.521798,123.3122727,
OpenStreetMap,Agus Hotel,motel,,,10.279226,123.986253,
OpenStreetMap,Badminton Plaza,pitch,,,10.313607,123.927491,
OpenStreetMap,Bernadette's Lechon,restaurant,,,10.310534,123.914791,
OpenStreetMap,Hiros Apartelle,motel,,,10.2912782,123.9898523,
OpenStreetMap,Jo's Chicken Inasal,restaurant,,,10.325918,123.9225788,
OpenStreetMap,JPark,resort,,,10.282758,123.9955086,
OpenStreetMap,Mactan Isla Resort and Casino,motel,,,10.2813986,123.9807225,
OpenStreetMap,Mikado Japanese Restuarant,restaurant,,,10.32163,123.904482,
OpenStreetMap,Asmara Restaurant and Bar,restaurant,,,10.3448592,123.910608,
OpenStreetMap,Tambuli East Beach Resort,beach_resort,,,10.2908639,124.0088284,
OpenStreetMap,Tambuli West Beach Resort,beach_resort,,,10.2897132,124.0070237,
OpenStreetMap,Cebu Beach Club Resort,beach_resort,,,10.2891438,124.0065127,
OpenStreetMap,Joven Restaurant & Manila FoodShop,restaurant,,,10.3245965,123.934777,
OpenStreetMap,Plaza Pino,restaurant,,,10.3318629,123.8997603,
OpenStreetMap,HR Tourist Hotel,hotel,,,10.3228762,123.9697186,
OpenStreetMap,Daño beach resort,restaurant,,,11.3273353,124.1196178,
OpenStreetMap,Blue Coral Bar,bar,,,11.3267565,124.1137295,
OpenStreetMap,Green AP,restaurant,,,10.3137842,123.9576993,
OpenStreetMap,Travellers Lodge,hostel,,,10.2922941,123.8984331,
OpenStreetMap,Crystal Beach Resort,beach_resort,,,10.4456748,123.4173303,
OpenStreetMap,Whispering Palms Island Resort,beach_resort,,,10.4676707,123.4480936,
OpenStreetMap,Mangodlong Rock Resort,beach_resort,,,10.616929,124.2828716,
OpenStreetMap,Pizza Hut,restaurant,,,10.3102062,123.893874,
OpenStreetMap,Mister Donut,cafe,,,10.3104379,123.8943221,
OpenStreetMap,Apple Tree Suites,hotel,,,10.3110081,123.8938451,
OpenStreetMap,Fuente Pension House,hotel,,,10.3110691,123.8940603,
OpenStreetMap,Cebu Grand Hotel,hotel,,,10.3183423,123.8953467,
OpenStreetMap,BR Town Square,bar,,,10.3357815,123.9507062,
OpenStreetMap,Boromeo beach,beach_resort,,,10.2378602,123.8250432,
OpenStreetMap,Conching Native Chicken and Fastfood,restaurant,,,10.3101223,123.9149888,
OpenStreetMap,Central Cebu National Park,nature_reserve,,,10.4409465,123.7593814,
OpenStreetMap,Shell Café,cafe,,,10.3250209,123.9162027,
OpenStreetMap,Talamban Viejo,hotel,,,10.369175,123.9172759,
OpenStreetMap,Adventure Cafe,viewpoint,,,10.4296651,123.7756724,
OpenStreetMap,KM33 Zipline,viewpoint,,,10.4316704,123.776966,
OpenStreetMap,Starbucks,cafe,,,10.3251808,123.9775123,
OpenStreetMap,Hidden Valley Mountain Resort,camp_site,,,10.2704395,123.6697759,
OpenStreetMap,Beverly View,viewpoint,,,10.3384813,123.8885473,
OpenStreetMap,Cafe Laguna,cafe,,,10.3128557,123.9184803,
OpenStreetMap,Stranded Shipscook,restaurant,,,10.4942377,123.7169866,
OpenStreetMap,Yooneek Bar,bar,,,11.1517926,123.8059857,
OpenStreetMap,Tiki Bar @ Bigfoot Mactan,bar,,,10.3121834,124.0066727,
OpenStreetMap,Bean Date,cafe,,,10.320218,123.9030117,
OpenStreetMap,Guiwanon Spring,picnic_site,,,10.9298562,124.0294102,
OpenStreetMap,Magsaysay Memorial,memorial,,,10.4400839,123.8130748,
OpenStreetMap,Laguda Apartelle,guest_house,,,10.4834179,123.4175017,
OpenStreetMap,Mt. Pinatubo's Engine,memorial,,,10.4517038,123.8145487,
OpenStreetMap,Vernels Place,guest_house,,,10.4150789,123.8104988,
OpenStreetMap,Bar-Ko,bar,,,11.3285537,124.1140005,
OpenStreetMap,Bojo River,viewpoint,,,10.2061567,123.5451106,
OpenStreetMap,Villa Teresita Resort,hotel,,,10.2360491,123.8319982,
OpenStreetMap,BE Resorts Mactan,hotel,,,10.3143389,124.0261339,
OpenStreetMap,Nonki,restaurant,,,10.3246422,123.9774059,
OpenStreetMap,La Tegola,restaurant,,,10.3256085,123.9768396,
OpenStreetMap,Cebu Zoo,attraction,,,10.3374941,123.885038,
OpenStreetMap,Ipar's Restaurante Y Bar De Tapas,restaurant,,,10.3058031,123.8976289,
OpenStreetMap,Bo's Coffee,cafe,,,10.3090977,123.8951108,
OpenStreetMap,Mae Krua Thai Cuisine,restaurant,,,10.3058451,123.897375,Restuarant - Thai Cuisine
OpenStreetMap,Starbucks,cafe,,,10.307967,123.8941112,
OpenStreetMap,Shakey's Pizza,restaurant,,,10.3102999,123.8921602,
OpenStreetMap,Holiday Spa and Gym,sports_centre,,,10.3296276,123.9110839,Spa and Gym
OpenStreetMap,Twin Garden Hotel,hotel,,,10.3432791,123.9129436,
OpenStreetMap,Ryan's Pizzarelli House,restaurant,,,10.3148026,123.8951961,
OpenStreetMap,Century Plaza Hotel,hotel,,,10.3116493,123.8944189,
OpenStreetMap,Palladium Suites,hotel,,,10.3108443,123.894885,
OpenStreetMap,Casa Del Mar Golf & Dive Hotel,hotel,,,11.0474622,123.916518,
OpenStreetMap,Hard Rock Resort,hotel,,,10.9587412,123.9216788,
OpenStreetMap,El Garaje,bar,,,10.3160708,123.9026475,
OpenStreetMap,JRA Seafood,restaurant,,,10.3114699,123.9022715,
OpenStreetMap,Café George,restaurant,,,10.3296615,123.909906,
OpenStreetMap,Bo's Coffee Club,cafe,,,10.3413033,123.9125426,
OpenStreetMap,Royal Krua Thai,restaurant,,,10.341282,123.9126421,
OpenStreetMap,Postrio,cafe,,,10.3412128,123.9127712,
OpenStreetMap,The Sizzlin' Pepper Steak,restaurant,,,10.3189868,123.9049204,
OpenStreetMap,Carbin Reef,park,,,10.9791607,123.4645946,
OpenStreetMap,Wakamatsu,restaurant,,,10.3218415,123.9131797,
OpenStreetMap,Berachah Inland Resort and Recreation Center,hotel,,,10.13349,124.284454,
OpenStreetMap,The Ranch Resort,resort,,,10.3349628,123.5933062,
OpenStreetMap,The Ranch Resort,restaurant,,,10.3353962,123.5937021,
OpenStreetMap,Wombat's Womb Cafe,cafe,,,10.2935114,123.9876713,
OpenStreetMap,Wombat's Womb Cafe,bar,,,10.29358,123.9877625,
OpenStreetMap,Wombat's Womb Cafe,cafe,,,10.2936988,123.9879314,
OpenStreetMap,Pirates Bar,bar,,,11.3269572,124.1185225,
OpenStreetMap,Haifisch Bar,bar,,,11.3271369,124.1157828,
OpenStreetMap,Maldito,bar,,,11.3280729,124.1139996,
OpenStreetMap,Little Mermaid,bar,,,11.327328,124.1167481,
OpenStreetMap,BlueWater,restaurant,,,11.3271524,124.1151965,
OpenStreetMap,Bakhaw Kiwi,restaurant,,,11.3298952,124.1163351,
OpenStreetMap,Sarkeys Restaurant Purple Snapper,restaurant,,,11.3288707,124.1193459,
OpenStreetMap,AABANA Beach Resort,beach_resort,,,11.3299409,124.1213584,
OpenStreetMap,Dal ROTI Corner,cafe,,,10.3022494,123.8892527,
OpenStreetMap,10.9 RestoBar,restaurant,,,10.4869007,123.4145676,
OpenStreetMap,Picnic Area,picnic_site,,,10.4857015,123.4253983,
OpenStreetMap,Manyapyap Gorge,viewpoint,,,10.4723901,123.9190425,
OpenStreetMap,Golden Cowrie,restaurant,,,10.3287846,123.9026446,
OpenStreetMap,FB Travellers Inn,hotel,,,10.4839329,123.4112313,
OpenStreetMap,Lipata Airsoft / Motorcross Gamesite,pitch,,,10.2534706,123.8136974,
OpenStreetMap,Mahlzeit MealTime!,restaurant,,,10.3310372,123.9438776,
OpenStreetMap,Guadalupe Reef,attraction,,,10.4494788,123.3753481,
OpenStreetMap,Osmol Reef,attraction,,,10.4790549,123.4269026,
OpenStreetMap,San Antonio Reef,attraction,,,10.457417,123.3908117,
OpenStreetMap,Carlitos Crispy Fried Chicken,restaurant,,,11.1551564,123.8057603,
OpenStreetMap,Costabella Resort,hotel,,,10.288819,124.0058272,
OpenStreetMap,Grand Convention,restaurant,,,10.3224271,123.9042636,
OpenStreetMap,Montebello Villa Hotel,hotel,,,10.3391296,123.909404,
OpenStreetMap,Moon Cafe,restaurant,,,10.3284982,123.9060478,
OpenStreetMap,Starbucks,cafe,,,10.3276354,123.9066949,
OpenStreetMap,Moon Cafe,restaurant,,,10.3106366,123.8917759,
OpenStreetMap,Firozian Indian Tea House,restaurant,,,10.3151729,123.8921963,
OpenStreetMap,Rajah Park Hotel,hotel,,,10.310283,123.893817,
OpenStreetMap,Richmond Hotel,hotel,,,10.3140619,123.9014882,
OpenStreetMap,St. Mortiz Restaurant,restaurant,,,10.3157613,123.9025181,
OpenStreetMap,St. Mortiz Bar,bar,,,10.315793,123.9025986,
OpenStreetMap,Stikili Beach Resort,motel,,,10.4367998,124.0101683,
OpenStreetMap,Mang Inasal,restaurant,,,10.3356067,123.9338755,
OpenStreetMap,Koreana Grocery,restaurant,,,10.3437405,123.9121654,
OpenStreetMap,Korner Kafe,cafe,,,10.3381113,123.9427006,
OpenStreetMap,Fuente Oro Business Suites,hotel,,,10.3127987,123.8926538,
OpenStreetMap,B.C. Pension,guest_house,,,10.9542926,123.3075142,
OpenStreetMap,Magdalene Hotel,hotel,,,10.9563193,123.3020914,
OpenStreetMap,Laura Hotel,hotel,,,10.9555145,123.3045101,
OpenStreetMap,Butterfly Sanctuary,attraction,,,10.2908663,123.8647388,
OpenStreetMap,Bo's Coffee,cafe,,,10.3354282,123.9340019,
OpenStreetMap,Dong Juan,restaurant,,,10.336072,123.9346697,
OpenStreetMap,Tsiboom,restaurant,,,10.3358425,123.934887,
OpenStreetMap,Chika-an,restaurant,,,10.3258259,123.9340984,
OpenStreetMap,Coffee Dream,cafe,,,10.3246411,123.9346939,
OpenStreetMap,Dong Juan,restaurant,,,10.3247651,123.9346805,
OpenStreetMap,Bo's Coffee,cafe,,,10.3252189,123.9339965,
OpenStreetMap,Joven's Grill,restaurant,,,10.3244036,123.9345222,
OpenStreetMap,Moon Cafe,restaurant,,,10.32581,123.9346322,
OpenStreetMap,Tandoori,restaurant,,,10.3252928,123.9338651,
OpenStreetMap,CDU,swimming_pool,,,10.3204352,123.9338443,
OpenStreetMap,Atek's Ngoyong Train,restaurant,,,10.3250751,123.9116573,
OpenStreetMap,Cebu Phoenix Villa Hotel,hotel,,,10.2943348,123.9879629,
OpenStreetMap,Jose Rizal Monument,memorial,,,11.1540735,123.8068102,
OpenStreetMap,Ben's Payag,cafe,,,11.1536862,123.8048115,
OpenStreetMap,Balikbayan,restaurant,,,11.1531402,123.8039901,
OpenStreetMap,El Sueño Resort and Restaurant,restaurant,,,10.3137022,124.0038423,
OpenStreetMap,Island Stay Hotel,hotel,,,10.3257089,123.9754109,
OpenStreetMap,Go Dong Ri Korean,restaurant,,,10.3230543,123.9785706,
OpenStreetMap,Hukad sa Golden Cowrie,restaurant,,,10.3254518,123.9769108,
OpenStreetMap,Buena Vista Restaurant,bar,,,10.2858146,123.9989549,
OpenStreetMap,Cebu White Sands Resort and Spa,hotel,,,10.2871876,123.9990446,
OpenStreetMap,Patio Gavino,restaurant,,,10.2864542,123.9993454,
OpenStreetMap,City of Bogo Museum,museum,,,11.0512428,124.0033991,
OpenStreetMap,R&F Function,hotel,,,11.0510557,124.0061627,
OpenStreetMap,Discovery Hills - SRCDS Tilhaong,camp_site,,,10.4033295,123.9598557,
OpenStreetMap,Carlo's Batchoy,restaurant,,,10.3156792,123.8913255,
OpenStreetMap,Bantayan Cottages,hotel,,,11.1591781,123.8055038,
OpenStreetMap,4D's Pension House,hotel,,,11.054517,124.0126408,
OpenStreetMap,Local Eateria,restaurant,,,10.4907423,123.8907752,
OpenStreetMap,Tickety Boo Resort,hotel,,,11.1723026,123.802323,
OpenStreetMap,Balibanda Restaurant,restaurant,,,11.3298243,124.1216245,
OpenStreetMap,Jacuzzi Pool,information,,,10.3224461,123.8486722,
OpenStreetMap,Samchino Restaurant,restaurant,,,10.3132843,123.8962095,
OpenStreetMap,Brunch Desserts,restaurant,,,10.3131886,123.8960948,
OpenStreetMap,Brown Cup,cafe,,,10.3130316,123.8961524,
OpenStreetMap,Mother's Fried Chicken,restaurant,,,10.3131014,123.8961277,
OpenStreetMap,Taras,restaurant,,,10.3133239,123.8963838,
OpenStreetMap,Sampaguitasuites JRG,hotel,,,10.3103335,123.8944886,
OpenStreetMap,BlueFins Resort,beach_resort,,,10.2794278,123.9957372,
OpenStreetMap,Caohagan House,hotel,,,10.2027401,124.0180282,
OpenStreetMap,Ichiriki Chaya,hotel,,,10.3399103,123.9230886,
OpenStreetMap,Ichiriki Chaya,restaurant,,,10.3398955,123.9231262,
OpenStreetMap,Chibori,restaurant,,,10.3313183,123.9084902,
OpenStreetMap,Chosun Galbi,restaurant,,,10.3435343,123.9147782,
OpenStreetMap,Crazy Crab,restaurant,,,10.3388578,123.9108527,
OpenStreetMap,일미식당,restaurant,,,10.3402574,123.9112137,
OpenStreetMap,Chosun Chicken,restaurant,,,10.3442457,123.9122054,
OpenStreetMap,Tomsigdang,restaurant,,,10.3265647,123.9172368,
OpenStreetMap,Seohae,restaurant,,,10.3396874,123.9252246,
OpenStreetMap,Ringtop Pension House,guest_house,,,10.3130385,123.9118045,
OpenStreetMap,Bubble Bee Tea House,restaurant,,,10.3173557,123.8948959,
OpenStreetMap,San Jose Pension,guest_house,,,10.3092668,123.901797,
OpenStreetMap,Cebu Uptown Apartelle,hotel,,,10.3116963,123.9021077,
OpenStreetMap,Cubana Restaurant Lounge Bar Club,bar,,,10.3108397,123.89865,
OpenStreetMap,Sunburst,restaurant,,,10.3103937,123.8964587,
OpenStreetMap,Hotel Capada,hotel,,,10.311621,123.8952607,
OpenStreetMap,McSherry Pension House,hotel,,,10.2979334,123.8987384,
OpenStreetMap,Hotel Le Carmen,hotel,,,10.3115986,123.8953448,
OpenStreetMap,The Beer Barrel Cebu,restaurant,,,10.3436554,123.9110937,
OpenStreetMap,Mamma Maria's Pizzeria,restaurant,,,10.3317194,123.9076232,
OpenStreetMap,Shakey's,restaurant,,,10.3285766,123.905735,
OpenStreetMap,Indiana Condotel,hotel,,,10.3076102,123.8995602,
OpenStreetMap,Pizzeria Michelangelo,restaurant,,,10.3436961,123.9108944,
OpenStreetMap,Tonros Apartelle,guest_house,,,10.3192056,123.9000085,
OpenStreetMap,Bernle's Lodge,guest_house,,,10.3120416,123.9032073,
OpenStreetMap,Vacation Hotel Cebu,hotel,,,10.3153718,123.8940345,
OpenStreetMap,Kakadu Gentlements,bar,,,10.3113098,123.8993089,
OpenStreetMap,Novax,bar,,,10.3112856,123.8990611,
OpenStreetMap,Sisters,bar,,,10.3112476,123.8988775,
OpenStreetMap,Twisted Sisters,bar,,,10.3112213,123.8987702,
OpenStreetMap,Jane Bar,bar,,,10.3116133,123.8988852,
OpenStreetMap,El Sagayno Cuisine,restaurant,,,10.3170654,123.899527,
OpenStreetMap,Kwikspar,restaurant,,,10.3189989,123.9015958,
OpenStreetMap,The apartelle,hotel,,,10.3180449,123.8953998,
OpenStreetMap,TGI Fridays,restaurant,,,10.3184377,123.9052263,
OpenStreetMap,Shakey's,restaurant,,,10.3183188,123.9051478,
OpenStreetMap,Pizza Hut,restaurant,,,10.3185695,123.9048501,
OpenStreetMap,Bo's Coffee,cafe,,,10.3196541,123.9045201,
OpenStreetMap,Bo's Coffee,cafe,,,10.3094281,123.8939871,
OpenStreetMap,Marjo's Pochero,restaurant,,,10.3166306,123.9005174,
OpenStreetMap,Pakals Restaurant,restaurant,,,10.3110893,123.8974732,
OpenStreetMap,Bintana Coffee House and Restaurant,restaurant,,,10.315047,123.8960055,
OpenStreetMap,EATiology,restaurant,,,10.3134215,123.8963328,
OpenStreetMap,Familia Xiamen Cuisine,restaurant,,,10.3102759,123.8964857,
OpenStreetMap,MR. COFFEE,cafe,,,10.3101176,123.8964106,
OpenStreetMap,The Philly,bar,,,10.3117537,123.8987494,
OpenStreetMap,Camp site for Naupa Summit Trail,camp_site,,,10.2733974,123.73056,
OpenStreetMap,DLS Chicken,restaurant,,,10.3206496,123.9110566,
OpenStreetMap,Richmond Cafe,cafe,,,10.3139585,123.9014472,
OpenStreetMap,Common Ground,cafe,,,10.3165752,123.9002517,
OpenStreetMap,Myra's Family Inn,guest_house,,,10.3117666,123.900446,
OpenStreetMap,Kanpai KTV&Lounge,bar,,,10.3104624,123.8995681,
OpenStreetMap,Rose Carinderia,restaurant,,,10.3167071,123.8985841,
OpenStreetMap,Bunks Hostel,hotel,,,10.311556,123.8954835,
OpenStreetMap,Little India,restaurant,,,10.3096152,123.8958049,
OpenStreetMap,Fr. Landz Pizza,restaurant,,,10.3147385,123.8857578,
OpenStreetMap,Bo's Coffee,cafe,,,10.3125529,123.8948617,
OpenStreetMap,Axcel's Foodhaus,restaurant,,,10.3157732,123.9012853,
OpenStreetMap,Axcel's Foodhaus,restaurant,,,10.3153881,123.9013642,
OpenStreetMap,AGM Pension House,guest_house,,,10.3768981,123.6370605,
OpenStreetMap,Kusinang Pinoy,restaurant,,,10.310769,123.8918698,
OpenStreetMap,Bo's Coffee,cafe,,,10.3105368,123.8917974,
OpenStreetMap,Flame It,restaurant,,,10.3103837,123.8921192,
OpenStreetMap,P.H.A.T. Pho,restaurant,,,10.3100327,123.8921165,
OpenStreetMap,The Coffee Bean & Tea Leaf,cafe,,,10.3101853,123.8919058,
OpenStreetMap,Dimsum Talk Fusion,restaurant,,,10.3107268,123.891741,
OpenStreetMap,Orange Brutus,restaurant,,,10.3106291,123.8919476,
OpenStreetMap,Bai,restaurant,,,10.3100618,123.896274,
OpenStreetMap,You,restaurant,,,10.3100915,123.8963346,
OpenStreetMap,Fitness Center Allson's Gym,sports_centre,,,10.309557,123.9036852,
OpenStreetMap,Starbucks,cafe,,,10.317351,123.9031146,
OpenStreetMap,Mic Check KTV,restaurant,,,10.3169546,123.8934507,
OpenStreetMap,Calda Pizza,restaurant,,,10.3125851,123.8954879,
OpenStreetMap,Sprocketeer,restaurant,,,10.3126379,123.8948379,
OpenStreetMap,Don Merto's Restaurant and Deli,restaurant,,,10.3156192,123.894329,
OpenStreetMap,BBQ City,restaurant,,,10.3131935,123.8948197,
OpenStreetMap,Majic Wellness Cafe,cafe,,,10.3126578,123.8949967,
OpenStreetMap,KSL Lodge,guest_house,,,10.2950656,123.896567,
OpenStreetMap,Yulese's Resort,hotel,,,10.2371564,123.8276242,
OpenStreetMap,Kuya Don Grill Station,restaurant,,,10.3096353,123.9035401,
OpenStreetMap,Enrod Apartelle,hostel,,,10.3094506,123.903457,
OpenStreetMap,Queensland,motel,,,10.3070304,123.9095095,
OpenStreetMap,Cebu Guest House,guest_house,,,10.3112157,123.9030352,
OpenStreetMap,La Guardia Hotel Cebu,hotel,,,10.2967958,123.8980928,
OpenStreetMap,MGR resort,hotel,,,11.3292964,124.1158589,
OpenStreetMap,Hidden Beach,attraction,,,10.2408847,123.5621027,
OpenStreetMap,Alex Apartelle,hotel,,,10.2215861,123.5489681,
OpenStreetMap,RoMa Guesthouse,guest_house,,,10.3099344,123.8577886,
OpenStreetMap,Hagnaya beach resort,hotel,,,11.0867064,123.9545203,
OpenStreetMap,Jones Brothers Pizza,restaurant,,,10.3129966,123.8924304,
OpenStreetMap,Laser Blitz Laser Tag,pitch,,,10.3253311,123.9334371,"Laser Blitz is a live-action sport, a combination of paintball and video games. Players enter a laser tag arena, armed with their laser tag phaser and vest. Players can be divided into teams, or sent out on their own. The objective? Shoot"
OpenStreetMap,Bo's Coffee,cafe,,,10.3137209,123.8925845,
OpenStreetMap,Espresso Bay,cafe,,,10.317666,123.8947045,
OpenStreetMap,Airol Pension House,guest_house,,,10.2963989,123.8927009,
OpenStreetMap,Aquamarine Fitness Gym,fitness_centre,,,10.3202594,123.9031328,
OpenStreetMap,Cebu Holiday Health and Fitness Center,fitness_centre,,,10.3198301,123.9014953,
OpenStreetMap,Le Cafe Le Noir,cafe,,,10.3202573,123.8997802,
OpenStreetMap,6th Pylon Campsite,camp_site,,,10.34946,123.8470591,Campsite
OpenStreetMap,Kan-Anan Cebuano Restaurant,restaurant,,,10.3203889,123.9034363,
OpenStreetMap,Skyblue Hotel,hotel,,,10.3098965,123.894778,
OpenStreetMap,Manuel's Restaurant,restaurant,,,10.3203016,123.9032134,
OpenStreetMap,Kimton's Lodging Inn,hostel,,,10.3150136,123.8923207,
OpenStreetMap,Normar Lodge,hostel,,,10.3162618,123.8917065,
OpenStreetMap,Residencia Santa Clara,hostel,,,10.3161389,123.8913545,
OpenStreetMap,Sanson Lodging House,hostel,,,10.3152194,123.8921108,
OpenStreetMap,Tops Resto Korean BBQ,restaurant,,,10.3396546,123.896398,
OpenStreetMap,Cafe Capriccio,restaurant,,,10.3394611,123.8963868,
OpenStreetMap,Busay View Grill,restaurant,,,10.3528066,123.8869299,
OpenStreetMap,Muvanz Pocherohan and Seafood,restaurant,,,10.3114228,123.8950029,
OpenStreetMap,Coffee Bean Scent,cafe,,,10.3105441,123.8966579,
OpenStreetMap,Cafeteria Jose,cafe,,,10.3128279,123.8956627,
OpenStreetMap,Casa Pelaez Luxury Suite,guest_house,,,10.3079037,123.9015414,
OpenStreetMap,Pool Bar @ Mandarin Plaza Hotel,bar,,,10.3197482,123.9033309,
OpenStreetMap,8th Street Bar & Coffee Lounge,cafe,,,10.3195555,123.9030895,
OpenStreetMap,Puso Bistro & Bar,restaurant,,,10.3197033,123.9032263,
OpenStreetMap,Club Hanabi KTV,bar,,,10.3389631,123.9278727,
OpenStreetMap,Pizzeria Michelangelo Italiano Restaurant,restaurant,,,10.3177324,123.8941071,
OpenStreetMap,Nesspresso,cafe,,,10.319917,123.9013745,
OpenStreetMap,Yolees Resto,restaurant,,,10.3200542,123.9013879,
OpenStreetMap,Casa Verde,restaurant,,,10.3282766,123.9059665,
OpenStreetMap,Sbarro,restaurant,,,10.3093642,123.8939294,
OpenStreetMap,Kelli Óle Kaffee,cafe,,,10.3173387,123.8853542,
OpenStreetMap,Around The World Pizza,restaurant,,,10.3263314,123.8982279,
OpenStreetMap,The Coffee Shop,cafe,,,10.3103946,123.894383,
OpenStreetMap,Yum Saeb Deli Resto Bar,restaurant,,,10.3105776,123.8943039,
OpenStreetMap,Coffee Prince,cafe,,,10.3136681,123.8916304,
OpenStreetMap,Oslo Bora,restaurant,,,10.3163783,123.8876588,
OpenStreetMap,Pancake House,restaurant,,,10.3191584,123.9048932,
OpenStreetMap,Jo's Chicken Inato,restaurant,,,10.3070553,123.8972447,
OpenStreetMap,Moonleaf,cafe,,,10.3070791,123.8973252,
OpenStreetMap,Miguel Lopez de Legazpi Monument,memorial,,,10.2933951,123.9051478,
OpenStreetMap,Hope Pension House,guest_house,,,10.2965857,123.9003739,
OpenStreetMap,Yakimix,restaurant,,,10.3169574,123.8938594,
OpenStreetMap,Kombini Cafe,cafe,,,10.317299,123.8931018,
OpenStreetMap,Portal,restaurant,,,10.3145736,123.9053519,
OpenStreetMap,Laguna Garden Cafe,restaurant,,,10.3188122,123.905722,
OpenStreetMap,Max's Restaurant,restaurant,,,10.3195419,123.904806,
OpenStreetMap,Karne Grill De Balamban,restaurant,,,10.5036542,123.7212589,
OpenStreetMap,Red Box,restaurant,,,10.3192996,123.9048776,
OpenStreetMap,Teriyaki Boy,restaurant,,,10.3192785,123.9046711,
OpenStreetMap,Figaro,cafe,,,10.318281,123.9054114,
OpenStreetMap,Lemon Grass,restaurant,,,10.3179643,123.9057453,
OpenStreetMap,Gerry's Grill,restaurant,,,10.3190753,123.9047006,
OpenStreetMap,Bigby's Restaurant,restaurant,,,10.3179274,123.9060014,
OpenStreetMap,Italiannis,restaurant,,,10.3184051,123.9060497,
OpenStreetMap,P.H.A.T. Pho,restaurant,,,10.3190727,123.9053899,
OpenStreetMap,Asiana Pension Inn,guest_house,,,10.3289324,123.9214438,
OpenStreetMap,Shabu-Way,restaurant,,,10.318277,123.9061043,
OpenStreetMap,The Social,restaurant,,,10.3175105,123.906099,
OpenStreetMap,Mother's Fried Chicken,restaurant,,,10.318219,123.9043823,
OpenStreetMap,Oh Georg!,restaurant,,,10.3175962,123.9046666,
OpenStreetMap,Flame It!,restaurant,,,10.3179287,123.90571,
OpenStreetMap,30 Kitchen + Bar,restaurant,,,10.3245324,123.9089419,
OpenStreetMap,Seoul,restaurant,,,10.3185259,123.9050833,
OpenStreetMap,Army Navy,restaurant,,,10.3186446,123.9050605,
OpenStreetMap,Abaca,restaurant,,,10.3179796,123.9058974,
OpenStreetMap,Siam Thai Cuisine,restaurant,,,10.3185496,123.9059765,
OpenStreetMap,Tonkatsu,restaurant,,,10.318481,123.9060516,
OpenStreetMap,Moon Cafe,restaurant,,,10.3183952,123.9061093,
OpenStreetMap,Elegant Circle Inn,hotel,,,10.3108152,123.8933908,
OpenStreetMap,TMS Lodge,guest_house,,,10.2971012,123.8959739,
OpenStreetMap,Done Rial Lodge,guest_house,,,10.2959518,123.8961319,
OpenStreetMap,Country Basket,cafe,,,10.3301143,123.897555,
OpenStreetMap,Cafe Rolly,cafe,,,10.2960199,123.8949424,
OpenStreetMap,Best Inn,hotel,,,10.2956585,123.898129,
OpenStreetMap,YSL Lodge,hotel,,,10.2959356,123.8995586,
OpenStreetMap,BSM Hotel,hotel,,,10.2852634,123.9692664,
OpenStreetMap,Cadi Shack Diner,restaurant,,,10.3237519,123.9135898,
OpenStreetMap,R's Food Avenue,restaurant,,,10.32381,123.9126779,
OpenStreetMap,Cafe Sarree,cafe,,,10.3171516,123.9059536,
OpenStreetMap,Coffee Dream,cafe,,,10.3123761,123.9171322,
OpenStreetMap,Slimmers World,fitness_station,,,10.3127613,123.9176579,
OpenStreetMap,Asmara Pool,swimming_pool,,,10.3449323,123.9104524,
OpenStreetMap,Celso Crib,restaurant,,,10.3611071,123.9161778,
OpenStreetMap,Aicila Suites,hotel,,,10.3604422,123.9156682,
OpenStreetMap,Eurohub Cafe & Bar,restaurant,,,10.3612179,123.9158935,
OpenStreetMap,Hukad,restaurant,,,10.3182278,123.9060952,
OpenStreetMap,Seafood Island,restaurant,,,10.3175858,123.906154,
OpenStreetMap,Circa 1900,restaurant,,,10.3268752,123.9001642,
OpenStreetMap,PATMON'S Eatery,restaurant,,,10.2964379,123.9001445,
OpenStreetMap,Arano's Bar and Restaurant,restaurant,,,10.322033,123.8829181,
OpenStreetMap,Asmara Squash,pitch,,,10.3447773,123.9103672,
OpenStreetMap,Maribago Tours,attraction,,,10.2830932,123.9997359,
OpenStreetMap,Hotel California,hotel,,,10.2855819,123.9695766,
OpenStreetMap,La'mas,restaurant,,,10.3383835,123.9288057,Creative Filipino And Western Cuisine
OpenStreetMap,Muelle Uno Resto Cafe,restaurant,,,10.2937795,123.9066868,
OpenStreetMap,Mainit Hot Springs,attraction,,,10.1318516,123.6014508,
OpenStreetMap,Mantayupan Falls,attraction,,,10.1009225,123.5357685,
OpenStreetMap,Mergie's Restaurant,restaurant,,,10.3089254,123.8906409,
OpenStreetMap,HideAway Beach Resort,beach_resort,,,11.1206488,124.0214232,
OpenStreetMap,Brown Cup,cafe,,,10.3508112,123.913404,
OpenStreetMap,Statue of Madonna,artwork,,,10.2375093,123.7797497,
OpenStreetMap,Julias Restobar,restaurant,,,10.3580554,123.9154848,
OpenStreetMap,"Boundary of Anislag, Pinamungajan and Bugho, San Fernando",boundary,,,10.2395337,123.6514739,
OpenStreetMap,Trillis,restaurant,,,10.3399528,123.9240712,
OpenStreetMap,S&R Pizza,restaurant,,,10.3170091,123.9058359,
OpenStreetMap,Starbucks,cafe,,,10.3180692,123.8958703,
OpenStreetMap,Capitol Tourist Inn,guest_house,,,10.3131177,123.8913849,
OpenStreetMap,M Citi Suites,hotel,,,10.310875,123.8923207,
OpenStreetMap,Mmm Cafe,cafe,,,10.3110736,123.8923523,
OpenStreetMap,Cuarto Hotel,hotel,,,10.3113697,123.8920783,
OpenStreetMap,The Pitstop,cafe,,,10.314397,123.8906007,
OpenStreetMap,Hotel Stella,hotel,,,10.3128008,123.8912032,
OpenStreetMap,Verbena Pension House,hotel,,,10.3122015,123.8914531,
OpenStreetMap,Starbucks,cafe,,,10.2976135,123.9001974,
OpenStreetMap,Chowabungga,restaurant,,,10.3287809,123.9073087,
OpenStreetMap,Ilaputi,restaurant,,,10.3289876,123.9076648,
OpenStreetMap,La Bodega,restaurant,,,10.299477,123.9757377,
OpenStreetMap,Travelbee Business Inn,hotel,,,10.3098012,123.8994469,
OpenStreetMap,No. 9,restaurant,,,10.3100835,123.9004661,
OpenStreetMap,Max's Restaurant,restaurant,,,10.3408183,123.9121519,
OpenStreetMap,Das Bierfass Cebu,restaurant,,,10.3351627,123.9346057,
OpenStreetMap,Pancake House,restaurant,,,10.3411709,123.9128724,
OpenStreetMap,Kiwi Lodge Bar & Restaurant,restaurant,,,10.3133019,123.910951,
OpenStreetMap,Kiwi Lodge,hotel,,,10.3131636,123.9110361,
OpenStreetMap,Rescue,bar,,,10.322017,123.904596,
OpenStreetMap,La Bonita Japanese Karaoke & Bar,bar,,,10.3218852,123.904498,
OpenStreetMap,Bubble Bee,cafe,,,10.3292518,123.9069138,
OpenStreetMap,Beanleaf,cafe,,,10.3292953,123.9068857,
OpenStreetMap,Tsai Hotel & Residences,hotel,,,10.3313241,123.8998631,
OpenStreetMap,David's Steak Seafood Restaurant,restaurant,,,10.3264131,123.9167954,
OpenStreetMap,Tazza Cafe,cafe,,,10.3314754,123.8999474,
OpenStreetMap,Burrow,bar,,,10.3311208,123.8995828,
OpenStreetMap,Fujinova,cafe,,,10.3313415,123.8994487,
OpenStreetMap,Bellini,restaurant,,,10.3358661,123.8968607,
OpenStreetMap,Anzani,restaurant,,,10.3355344,123.8968355,
OpenStreetMap,Fitness Nation,sports_centre,,,10.3456012,123.9093786,
OpenStreetMap,AA BBQ,restaurant,,,10.3175919,123.887494,
OpenStreetMap,Villa Inez Pension House,hotel,,,10.319333,123.8876614,
OpenStreetMap,Dong Juan,restaurant,,,10.3186044,123.8865236,
OpenStreetMap,Lola Eat's Food House,restaurant,,,10.3165562,123.8870316,
OpenStreetMap,The Oriental Spice Gourmet,restaurant,,,10.2967682,123.9642237,
OpenStreetMap,Karaoke,yes,,,10.4813224,123.708746,
OpenStreetMap,Manila Foodshoppe,restaurant,,,10.3170581,123.8940708,
OpenStreetMap,Abaceria Cafe & Deli,cafe,,,10.326505,123.9125588,
OpenStreetMap,Hisoler's Beach Resort,hotel,,,11.04784,124.038849,
OpenStreetMap,Heroes Technology,internet_cafe,,,11.0506511,124.0045431,
OpenStreetMap,Alta Cebu Resort,resort,,,10.2671535,123.9433916,
OpenStreetMap,Blue Ocean Hotel,hotel,,,10.287168,124.0033089,
OpenStreetMap,R&F Fitness Gym,fitness_centre,,,11.0522752,124.0043533,
OpenStreetMap,Gabriel Flash Elorde Statue,memorial,,,11.0512304,124.00364,
OpenStreetMap,Cafe Tampopo,restaurant,,,11.0511308,124.004826,
OpenStreetMap,Capitancillo,restaurant,,,11.0509883,124.0059405,
OpenStreetMap,R&F Pension House,hostel,,,11.0509938,124.0058714,
OpenStreetMap,Casa del Sol,apartment,,,11.3285002,124.1166177,
OpenStreetMap,Dakit-Dakit,attraction,,,11.3235603,124.1090875,Dive Site
OpenStreetMap,Coral Gardens,attraction,,,11.3399699,124.1221839,Snorkeling Site
OpenStreetMap,Coco Beach Resort,water_park,,,10.5090012,124.0283482,
OpenStreetMap,Costañera Beach Club,water_park,,,10.5094402,124.0280117,
OpenStreetMap,Piancel Beach,water_park,,,10.5082825,124.0288611,
OpenStreetMap,Tamloc Beach Cottages & Videoke,water_park,,,10.5075582,124.0295399,
OpenStreetMap,Boardwalk Beach Resort,water_park,,,10.4550652,124.013567,
OpenStreetMap,Sun Resort,beach_resort,,,10.4805392,124.0219498,
OpenStreetMap,Baruffols's Beach Resort,water_park,,,10.4130657,123.9977642,
OpenStreetMap,Alta Cebu Resort,hotel,,,10.2672788,123.9434189,
OpenStreetMap,Coco Grove Nature Resort,beach_resort,,,10.6169556,124.284254,
OpenStreetMap,Mangodlong Paradise Beach Resort,hotel,,,10.6171806,124.2837618,
OpenStreetMap,Surya Nanda Yoga,fitness_station,,,10.3210134,123.9000626,
OpenStreetMap,Apolinario Mabini Monument,memorial,,,11.1688478,123.723705,
OpenStreetMap,Urban Cafe,cafe,,,11.0514137,124.0067506,
OpenStreetMap,Fitness Gym,fitness_centre,,,10.2652813,123.8412521,
OpenStreetMap,Eagle Sea Fitness Gym,fitness_centre,,,10.26055,123.8404745,
OpenStreetMap,Rizal Monument,memorial,,,11.2502991,123.9989349,
OpenStreetMap,Politics,bar,,,10.3178077,123.8940917,
OpenStreetMap,Pacific Pensionne,guest_house,,,10.3055996,123.8953089,
OpenStreetMap,Zubuchon,restaurant,,,10.3102132,123.8964775,
OpenStreetMap,Jacinth Pension House,hotel,,,10.315661,123.8908895,We provide simple but comfortable accommodation which suits your budget.
OpenStreetMap,Joed's Lutong Hapon,restaurant,,,10.324108,123.9150828,
OpenStreetMap,Fort of San Pedro,memorial,,,10.2926049,123.9056314,
OpenStreetMap,Andres Bonifacio (30 Nobyembre 1863 – 10 Mayo 1897),memorial,,,10.2923684,123.9049536,
OpenStreetMap,Cebu Veterans Memorial,memorial,,,10.2922815,123.9046118,
OpenStreetMap,Miguel Lopez de Legazpi,memorial,,,10.2932242,123.9060352,
OpenStreetMap,BPI Museum Cebu,museum,,,10.2935668,123.9025359,
OpenStreetMap,Bank of the Philippine Islands (BPI),memorial,,,10.2935105,123.9024565,
OpenStreetMap,The Cross of Magellan,memorial,,,10.2935182,123.9019395,
OpenStreetMap,Moshi Moshi,restaurant,,,10.3435944,123.9112266,
OpenStreetMap,Zubuchon,restaurant,,,10.32836,123.9059986,
OpenStreetMap,Gusto,restaurant,,,10.3289972,123.9055028,
OpenStreetMap,BBR beach resort,hotel,,,10.6165002,124.2829605,
OpenStreetMap,Kusina Uno,restaurant,,,10.3261422,123.9198342,
OpenStreetMap,Wow Lodge Pension House,hotel,,,10.3138147,123.962587,
OpenStreetMap,Wow Lodge,guest_house,,,10.3288223,123.9411408,
OpenStreetMap,abatols compound,guest_house,,,10.2865295,123.8699849,
OpenStreetMap,Wow Lodge,hotel,,,10.3111279,123.9540233,
OpenStreetMap,Hidden Lodge,hotel,,,10.3344653,123.9405084,
OpenStreetMap,Canberry Hotel,hotel,,,10.3176398,123.8850941,
OpenStreetMap,Europa Pension Inn,hotel,,,10.3117041,123.8932933,
OpenStreetMap,BFK Bar,bar,,,10.3012397,123.9630435,
OpenStreetMap,Ramen Kamekichi,restaurant,,,10.3136495,123.9022604,
OpenStreetMap,Bucket Shrimps,restaurant,,,10.3130061,123.8903845,
OpenStreetMap,Cebu Westown Lagoon,hotel,,,10.3209154,123.9288332,
OpenStreetMap,Overlooking Sipaway Is.,viewpoint,,,10.5188574,123.3270002,
OpenStreetMap,Island Eco Tourism Park,park,,,10.2478658,124.0485148,
OpenStreetMap,JTH 2 and JTH 3 Dormitory,hostel,,,10.3547198,123.9151995,
OpenStreetMap,Church and Convent of Santo Niño,memorial,,,10.2942292,123.9021685,
OpenStreetMap,Heinz,bar,,,10.3628268,123.9119744,
OpenStreetMap,Villa-Atlas Guest House,hostel,,,11.3299677,124.1153558,
OpenStreetMap,Heritage of Cebu Monument,memorial,,,10.2988934,123.903617,
OpenStreetMap,Colon Obelisk,memorial,,,10.2979734,123.9036774,
OpenStreetMap,La Parisienne,restaurant,,,10.3262886,123.898113,
OpenStreetMap,Zubuchon,restaurant,,,10.3255802,123.9764368,
OpenStreetMap,Craver's Crib by Cocina Louicita,restaurant,,,10.3183904,123.8870273,
OpenStreetMap,RJ Peso Net,internet_cafe,,,10.2651744,123.8504257,with auto change machine
OpenStreetMap,Weboss Paintball Ground,pitch,,,10.3445052,123.9135606,"Weboss Paintball is an outdoor paintball game that caters all walks of life. Players enjoy the game under the heat of the sun, fresh air and real muddy game when it is raining. It's all about fun!"
OpenStreetMap,Cafe Breeze,cafe,,,10.3118326,123.9210384,
OpenStreetMap,Meximama,restaurant,,,10.3250013,123.9191136,
OpenStreetMap,Dong Juan,restaurant,,,10.3250485,123.9189339,
OpenStreetMap,The Boss Disco & Bikini Bar,bar,,,10.2983159,123.8988753,
OpenStreetMap,Tio Apin's,restaurant,,,10.4861464,123.4151509,
OpenStreetMap,Dexter Pizza,restaurant,,,10.4867589,123.4147899,
OpenStreetMap,Palapala,restaurant,,,10.4854295,123.4157313,
OpenStreetMap,Takuza Disco & Bikini Bar,bar,,,10.2984063,123.8991014,
OpenStreetMap,Napo Basketball Court,sports,,,10.3443226,123.8632906,
OpenStreetMap,Skyland Hotel & Restaurant,hotel,,,10.4820841,123.4144313,
OpenStreetMap,Sir Chef,restaurant,,,10.4916289,123.4112126,
OpenStreetMap,Arbel Lodging House,guest_house,,,10.304864,123.89549,
OpenStreetMap,Villa de Mercedes Pension House,guest_house,,,10.3151346,123.8896824,
OpenStreetMap,Park Hill Hotel,hotel,,,10.3226594,123.9771201,
OpenStreetMap,San Almont Pension House,hotel,,,10.2948799,123.891215,
OpenStreetMap,JL Suites,hotel,,,10.3028393,123.898305,
OpenStreetMap,Harrison Park Grill & Sizzling Bar,restaurant,,,10.3052524,123.8942418,
OpenStreetMap,E--Refreshment,restaurant,,,10.5049653,123.7141155,
OpenStreetMap,Rose Garden,beach_resort,,,10.3190553,123.581786,
OpenStreetMap,Balay Kauswagan,hotel,,,10.8775834,123.4093728,
OpenStreetMap,Palazzo Pensionne,guest_house,,,10.3065878,123.9021534,
OpenStreetMap,Guadalupe Cave,attraction,,,10.3335397,123.8827765,
OpenStreetMap,Jice Net Cafe,internet_cafe,,,10.2995139,123.8892754,
OpenStreetMap,Yes Pension House,guest_house,,,10.3019397,123.8983368,
OpenStreetMap,Gantuangco cementary,memorial,,,10.0938296,123.662586,
OpenStreetMap,Coffee Madness,cafe,,,10.3822544,123.9996047,
OpenStreetMap,Hotshot,pitch,,,10.2655773,123.9700675,
OpenStreetMap,Cebu Wonderland Firing Range,information,,,10.2756147,123.9878423,
OpenStreetMap,Kasya Grill Restobar,restaurant,,,10.4004688,123.6576561,
OpenStreetMap,Fruitpops,restaurant,,,10.3253662,123.9337643,
OpenStreetMap,Sachi Authentic Japanese,restaurant,,,10.3253367,123.93381,
OpenStreetMap,Chalet de Mactan,hotel,,,10.3231779,123.9716638,
OpenStreetMap,Jekoy's Cafe,cafe,,,10.260195,123.8302416,
OpenStreetMap,Isidra Comfort Catina,restaurant,,,10.3127399,123.8909874,
OpenStreetMap,Alejandros,restaurant,,,10.3114191,123.8946166,
OpenStreetMap,Kota Fort,yes,,,11.2998133,123.7297852,
OpenStreetMap,Circa Laplaya Resort,hostel,,,10.2385128,123.8136942,
OpenStreetMap,Dhelsjoe calamansi farm,guest_house,,,10.3045774,123.598059,
OpenStreetMap,Firetree Nook,restaurant,,,10.3738646,123.8718224,
OpenStreetMap,Park Place Restaurant and Videoke,restaurant,,,10.1372164,123.6923297,
OpenStreetMap,Thai Boran,sauna,,,10.1028026,123.6391589,
OpenStreetMap,UV Training Site,attraction,,,10.3151315,124.0268044,
OpenStreetMap,Jacky / Axel Tusil Home,guest_house,,,10.3156574,123.9683505,
OpenStreetMap,Mactan Blue Reef Beach Resort,beach_resort,,,10.2646548,123.9872564,
OpenStreetMap,West Ocean Lines & Transport Inc.,guest_house,,,10.3065252,123.9130264,
OpenStreetMap,Golden Star Manning,guest_house,,,10.3093485,123.9169815,
OpenStreetMap,Gigalaman Waterfall,attraction,,,10.4671327,123.3252172,
OpenStreetMap,Funtastic Island Resort,beach_resort,,,11.1842503,123.9177043,
OpenStreetMap,Kusina Karaan,restaurant,,,10.4715362,123.7017903,
OpenStreetMap,Bo's Coffee,cafe,,,10.3502499,123.9486305,
OpenStreetMap,Big Dreams Residences,apartment,,,10.3295593,123.9431593,
OpenStreetMap,Alberto's Pizza,restaurant,,,10.3204427,123.9110101,
OpenStreetMap,LCT Star II,attraction,,,10.312964,123.9309907,
OpenStreetMap,Mabuhay Boarding Hause,hostel,,,10.3194626,123.9665052,
OpenStreetMap,Duko Duko Native Chicken,restaurant,,,10.7059709,124.0123079,
OpenStreetMap,jack alunan cafe,restaurant,,,10.3197366,123.9073797,
OpenStreetMap,Jubilee House,hotel,,,10.3142354,123.8910099,
OpenStreetMap,JDC,hotel,,,10.2997005,123.8921217,
OpenStreetMap,Hideout Grill,restaurant,,,10.3040554,123.8900515,
OpenStreetMap,"Hermits Cove, Aloguinsan",beach_resort,,,10.2016399,123.5341457,
OpenStreetMap,Neo Neo Grill,restaurant,,,10.309228,123.8950691,
OpenStreetMap,Countess Pension House,guest_house,,,10.4052113,123.9989972,
OpenStreetMap,Maestro Bar and Resort,bar,,,10.161865,123.7111697,
OpenStreetMap,Sybu Dormitory,guest_house,,,10.3303026,123.9022761,
OpenStreetMap,Facebar,bar,,,10.3120406,123.960155,
OpenStreetMap,Maribago Grill,restaurant,,,10.2887714,123.998919,
OpenStreetMap,Bonchon Chicken,restaurant,,,10.3179902,123.9057718,
OpenStreetMap,Orange Brutus,restaurant,,,10.2075286,123.7582659,
OpenStreetMap,Birsto Alberto East & West Cuisine,restaurant,,,10.2079014,123.7596487,
OpenStreetMap,First Mactan Bridge,viewpoint,,,10.3180685,123.9566727,
OpenStreetMap,Sugar X Spice,cafe,,,10.2581514,123.8441254,
OpenStreetMap,Iamiks Chicken and Br,bar,,,10.3203511,123.9121764,
OpenStreetMap,Teves Family,hostel,,,10.2676213,123.7953619,
OpenStreetMap,East Capitol Pension,hotel,,,10.3180191,123.8922849,
OpenStreetMap,jrules,guest_house,,,10.2624502,123.8385941,
OpenStreetMap,Wat Ever Family KTV,bar,,,10.3251633,123.9189891,
OpenStreetMap,Yobob Lechon,restaurant,,,10.3249793,123.9189984,
OpenStreetMap,Head Quarterz,bar,,,10.3265651,123.9170501,
OpenStreetMap,Buena Marga Woodland Beach Resort,motel,,,11.0537615,124.0360715,
OpenStreetMap,Chef Panang,restaurant,,,11.1555726,123.8074211,
OpenStreetMap,Chef Panang,restaurant,,,11.1556435,123.8071786,
OpenStreetMap,Chef Panang,restaurant,,,11.1557856,123.8072807,
OpenStreetMap,Cupcake Island,restaurant,,,11.1557147,123.8071272,
OpenStreetMap,Desert Zone,restaurant,,,11.1558636,123.8072648,
OpenStreetMap,German Food,restaurant,,,11.1556697,123.8073555,
OpenStreetMap,Liquido,bar,,,11.1558112,123.8071784,
OpenStreetMap,Bantayan Burrito Company,restaurant,,,11.1557476,123.8071062,
OpenStreetMap,Paradiso Snack Bar,restaurant,,,11.1554723,123.8074864,
OpenStreetMap,Sarapoi,restaurant,,,11.1557295,123.8073181,
OpenStreetMap,Shake Me,restaurant,,,11.1555795,123.8072199,
OpenStreetMap,Stix Smokehouse,restaurant,,,11.1554101,123.8073345,
OpenStreetMap,Tsikoi's Botchoy,restaurant,,,11.1554897,123.8072817,
OpenStreetMap,D&N Lodge,hotel,,,11.279445,124.0611,
OpenStreetMap,Anytime Fitness,fitness_centre,,,10.3164954,123.8941268,
OpenStreetMap,Hausbrandt,restaurant,,,10.3171186,123.893825,
OpenStreetMap,Bougainvilla,attraction,,,10.3628488,123.9372416,
OpenStreetMap,JSU Mariners Court,guest_house,,,10.292148,123.9069296,
OpenStreetMap,Full Moon Recreation Center,restaurant,,,10.320213,123.902048,
OpenStreetMap,Conching,restaurant,,,10.326358,123.9336083,The Original Native Kitchen
OpenStreetMap,AA Barbeque,restaurant,,,10.2489909,123.8029366,
OpenStreetMap,Cebu Guesthouse Fuente,guest_house,,,10.3083586,123.8940454,
OpenStreetMap,Toraja Cafe,cafe,,,10.3093746,123.8953382,
OpenStreetMap,Shamrock Fuente Pension,hotel,,,10.3104272,123.8924404,
OpenStreetMap,The Pig & Palm,restaurant,,,10.3128747,123.9043643,
OpenStreetMap,Halovérs,cafe,,,10.2980228,123.903778,
OpenStreetMap,Cafe Armenia,restaurant,,,10.2980343,123.9464365,
OpenStreetMap,Boss Manok,restaurant,,,10.2907289,123.9679336,
OpenStreetMap,AA BBQ,restaurant,,,10.3072505,123.897098,
OpenStreetMap,Amidala Cafe,cafe,,,10.3156016,123.8945566,
OpenStreetMap,AA BBQ,restaurant,,,10.3424442,123.9166049,
OpenStreetMap,Azaleah Heights,viewpoint,,,10.270935,123.80449,
OpenStreetMap,EZ Tambayan resto,bar,,,10.2677963,123.9667711,
OpenStreetMap,Luncheonette,restaurant,,,10.310232,123.8919089,
OpenStreetMap,1st avenue appartelle,hotel,,,10.321593,123.9687417,
OpenStreetMap,Cebu Fiesta Business Suites,hotel,,,10.3004015,123.9018075,
OpenStreetMap,Alejandra's Place,cafe,,,10.3265182,123.9118332,
OpenStreetMap,Ala King,restaurant,,,10.3110081,123.8915524,
OpenStreetMap,Westpoint Inn,hotel,,,10.3115907,123.8919124,
OpenStreetMap,PTCC Mandaue,guest_house,,,10.3440297,123.9329416,
OpenStreetMap,Healthy U Veggie Delights,restaurant,,,10.3020735,123.8892441,
OpenStreetMap,Puso Green Haus,guest_house,,,10.2545418,123.9492231,
OpenStreetMap,MB's Garden Inn,hotel,,,10.292418,123.9715285,
OpenStreetMap,A. D. Cabahug's Place,apartment,,,10.341812,123.9424792,
OpenStreetMap,chikaan,restaurant,,,10.3291423,123.9025889,
OpenStreetMap,Coney's Place,motel,,,10.2985172,123.9057739,
OpenStreetMap,Seamens House & Lodging,guest_house,,,10.3336456,123.9520161,
OpenStreetMap,Persian Palate,restaurant,,,10.3110584,123.8956092,
OpenStreetMap,Famed Lodge,hostel,,,10.2991757,123.8979734,
OpenStreetMap,Buena Vida Resort & Spa,guest_house,,,11.3281785,124.1185954,
OpenStreetMap,Joule's Lechon Manok,restaurant,,,10.36937,123.9166366,
OpenStreetMap,Cebu City Center Inn,hostel,,,10.3335267,123.9021127,
OpenStreetMap,Ka-Osting / Bantigue,yes,,,11.3456001,124.1193512,Dive Site
OpenStreetMap,Evo House Reef,attraction,,,11.3311789,124.126316,Dive Site
OpenStreetMap,Manggahan,restaurant,,,10.3333554,123.9010024,
OpenStreetMap,The Oblation,artwork,,,10.3223662,123.8985032,
OpenStreetMap,ISLA resort,hotel,,,10.3148152,123.9981544,
OpenStreetMap,KKD stk+bbq,restaurant,,,10.2919234,123.9036148,
OpenStreetMap,Livestock House,viewpoint,,,10.885746,123.4143381,
OpenStreetMap,Gym,fitness_centre,,,10.8975748,123.4157197,
OpenStreetMap,Balay ni Tsololot,viewpoint,,,10.8347953,123.5490146,
OpenStreetMap,Balay ni Mark Anthony Aigato,attraction,,,10.8348238,123.5489662,
OpenStreetMap,Stevens Place Hostel,hostel,,,10.3264917,123.8824153,
OpenStreetMap,East Gate Residences,guest_house,,,10.323316,123.9766974,
OpenStreetMap,Mr. A Restaurant,restaurant,,,10.3520095,123.8897706,
OpenStreetMap,Hiltey's Hideout Homes,guest_house,,,11.328112,124.11787,
OpenStreetMap,Starbucks,cafe,,,10.3305216,123.9058036,
OpenStreetMap,RL8 Internet Cafe,internet_cafe,,,10.323639,123.884339,
OpenStreetMap,Kang-Maya Basketball Court,pitch,,,10.3721927,123.8826595,
OpenStreetMap,Kawaii Cafe,cafe,,,10.3002985,123.8981635,
OpenStreetMap,Shan Dong,restaurant,,,10.3393555,123.9264775,
OpenStreetMap,Food District Hostel,hostel,,,10.3336637,123.9021705,
OpenStreetMap,Slider shack,restaurant,,,10.2994935,123.9781455,
OpenStreetMap,Ngohiong express,restaurant,,,10.2904289,123.9674213,
OpenStreetMap,Balay ni Badang,attraction,,,10.0909454,123.6301558,
OpenStreetMap,Nonki Teppan Yaki,restaurant,,,10.3352667,123.934379,
OpenStreetMap,Gerardos,restaurant,,,10.2901741,123.9673667,
OpenStreetMap,Honey Hunt House,guest_house,,,10.3011839,123.8985254,
OpenStreetMap,Pacific Cebu Resort,beach_resort,,,10.2551345,123.9728679,
OpenStreetMap,Tubo Cane Juice,cafe,,,10.3162453,123.9794356,juice bar
OpenStreetMap,Bo's Coffee,cafe,,,10.3162268,123.9793717,
OpenStreetMap,Mactan Newtown Beach,beach_resort,,,10.303438,124.01929,
OpenStreetMap,Ligo kasadya ronda,camp_site,,,10.016424,123.4082435,
OpenStreetMap,Cebeco aging storage,guest_house,,,10.0768256,123.452164,
OpenStreetMap,Da Vinci's,restaurant,,,10.3252559,123.9339366,
OpenStreetMap,Ligo camboang,camp_site,,,10.0360314,123.4111668,
OpenStreetMap,Han Guk Kwan Korean Restaurant,restaurant,,,10.3215768,123.9040813,
OpenStreetMap,Sweet Street,restaurant,,,10.3126207,123.9559866,
OpenStreetMap,Dimsum Break,restaurant,,,10.3131618,123.9561094,
OpenStreetMap,DYG Restobar,restaurant,,,10.2915328,123.9688088,
OpenStreetMap,Seafood Island,restaurant,,,10.3259536,123.9762453,
OpenStreetMap,Pancit Malabon Express,restaurant,,,10.3131913,123.9561489,
OpenStreetMap,Tri Sister's,restaurant,,,10.3253181,123.9476159,
OpenStreetMap,Bo's coffee,bar,,,10.284304,123.9949167,
OpenStreetMap,NYPD,restaurant,,,10.3128847,123.916549,
OpenStreetMap,CBC Carloc,attraction,,,10.2947196,123.8865865,
OpenStreetMap,Peri-Peri Charcoal Chicken and Sauce Bar,restaurant,,,10.3143868,123.9261996,
OpenStreetMap,Sweet Street,restaurant,,,10.3128194,123.9559078,
OpenStreetMap,Da Vinci's,restaurant,,,10.3808424,123.9652761,
OpenStreetMap,Da Vinci's,restaurant,,,10.2895083,123.8705049,
OpenStreetMap,beaches hide by the cliff,attraction,,,11.1470947,123.790359,
OpenStreetMap,Amax Inn Cebu,hotel,,,10.3387234,123.932637,
OpenStreetMap,hide paradise beach,attraction,,,11.1462574,123.782141,
OpenStreetMap,CnT,restaurant,,,10.3262937,123.8825025,
OpenStreetMap,Ultimate Gaming Pro,internet_cafe,,,10.3001858,123.9627173,
OpenStreetMap,Twinbee Mango,artwork,,,10.3101048,123.8964306,
OpenStreetMap,Moon cafe,restaurant,,,10.2859798,123.9694359,
OpenStreetMap,Gentleman Cafe,cafe,,,10.2860124,123.9697981,
OpenStreetMap,Hwang Kung restaurent,restaurant,,,10.3273963,123.903796,
OpenStreetMap,Goldberry Suites & Hotel,hotel,,,10.3210427,123.967973,
OpenStreetMap,Rabbit Hole,restaurant,,,10.3209955,123.9677278,
OpenStreetMap,Garces Royal Garden,restaurant,,,10.258747,123.8411731,
OpenStreetMap,tabunok sogod cebu fishport,information,,,10.7717748,124.0142826,
OpenStreetMap,Tablea Chocolate Café,cafe,,,10.330622,123.8984779,
OpenStreetMap,Twin hearts eatery,restaurant,,,10.2976482,123.8795906,
OpenStreetMap,Cambuhawe Spring,attraction,,,10.4925979,123.7212147,
OpenStreetMap,Cafe Talk,cafe,,,10.3011862,123.9632203,
OpenStreetMap,Aa Barbeque,restaurant,,,10.2967091,124.0013769,
OpenStreetMap,Kainan,restaurant,,,10.2902481,123.9981283,
OpenStreetMap,Maligaya spa,sauna,,,10.2995682,124.0032546,
OpenStreetMap,7107 restaurant,restaurant,,,10.2953568,123.9988575,
OpenStreetMap,Cebu Dream Show,bar,,,10.3125326,124.0045285,
OpenStreetMap,The Hilot Spa,sauna,,,10.3181978,123.9637912,
OpenStreetMap,Buagsong Bakasi Eatery,restaurant,,,10.2468953,123.9381998,
OpenStreetMap,Kasadya,bar,,,10.2565371,123.9510881,
OpenStreetMap,Dacua Native Inn,guest_house,,,10.2920938,123.8929873,
OpenStreetMap,Basalo Haus 4 Rent,hostel,,,10.2550216,123.8411878,
OpenStreetMap,Ramen Dojo,restaurant,,,10.3284733,123.9056494,
OpenStreetMap,Fiber home Warehouse,artwork,,,10.3325145,123.9508922,
OpenStreetMap,Dohera hotel,hotel,,,10.334748,123.9411889,
OpenStreetMap,Mount Naupa campground,camp_site,,,10.2731416,123.7296666,
OpenStreetMap,Taneo's Res. Lahug,guest_house,,,10.3349706,123.8943287,
OpenStreetMap,Manila Food Shop,restaurant,,,10.2668804,123.8427179,
OpenStreetMap,Hukad,restaurant,,,10.2668047,123.8428836,
OpenStreetMap,Sampalogue,cafe,,,10.3522733,123.8884092,
OpenStreetMap,Chabad of cebu,attraction,,,10.323362,123.912048,
OpenStreetMap,Atan's Larangan,restaurant,,,10.3770953,123.961559,
OpenStreetMap,JVR Island in the Sky Resort,attraction,,,10.4313928,123.7761173,
OpenStreetMap,Guest House Nodoka,guest_house,,,10.3409875,123.9201512,
OpenStreetMap,Kogi Q,restaurant,,,10.3252476,123.9350937,
OpenStreetMap,Yolk Cafe and Breakfast,cafe,,,10.3206218,123.911604,
OpenStreetMap,Mango bar and restaurant,bar,,,10.3106364,123.8986722,
OpenStreetMap,Betty's Farm,attraction,,,10.414997,123.81042,
OpenStreetMap,Lapulapu Monument,artwork,,,10.3110647,124.0152459,
OpenStreetMap,A&A eatery,restaurant,,,10.3389359,123.9276626,
OpenStreetMap,Pearl Honam Meatshop and Restaurant,restaurant,,,10.3389606,123.927579,
OpenStreetMap,Tykes Cafe,cafe,,,10.2924944,123.9088387,
OpenStreetMap,Tykes Cafe,cafe,,,10.297164,123.9113298,
OpenStreetMap,WasSup Beach 🌴,attraction,,,11.176127,123.79578,
OpenStreetMap,Blue Ridges Resort,guest_house,,,10.1550527,123.6589389,
OpenStreetMap,Maskara,restaurant,,,10.3153767,123.9655084,
OpenStreetMap,Wand Apartment,hostel,,,10.2911982,123.9688646,
OpenStreetMap,"Boongon, Laaw, Borbon, Cebu",viewpoint,,,10.83789,123.98417,
OpenStreetMap,Residenz Guesthouse,guest_house,,,10.3338355,123.9515363,
OpenStreetMap,Airport Villa,guest_house,,,10.3176572,123.9717682,
OpenStreetMap,Jose R. Gullas Halad Museum,museum,,,10.3058932,123.9123065,
OpenStreetMap,Lord's Pension,hostel,,,10.331146,123.9448713,
OpenStreetMap,Talaba Farm,restaurant,,,10.3674726,123.972571,
OpenStreetMap,Tennis Court,pitch,,,10.3617664,123.980801,
OpenStreetMap,Former Tieza Botanical Garden,attraction,,,10.3897505,123.8667751,
OpenStreetMap,RJB Apartment,guest_house,,,10.3973314,123.9155332,
OpenStreetMap,Terraza De Flores,yes,,,10.378534,123.8691882,
OpenStreetMap,E. F. Nichols Plaza,hotel,,,10.8932683,123.4138493,
OpenStreetMap,"10,000 LED Roses",attraction,,,10.2565272,123.9326615,
OpenStreetMap,Chanix,bar,,,10.4843671,123.4151836,
OpenStreetMap,Ruben's Talabahan,restaurant,,,10.3677941,123.972431,
OpenStreetMap,Southpole Central Hotel,hotel,,,10.299986,123.8997261,
OpenStreetMap,Wiggys Beach Resort,guest_house,,,10.4142514,123.997392,
OpenStreetMap,Abuhan South,restaurant,,,10.2928494,123.8794168,
OpenStreetMap,Antonio's Garden Restaurant,restaurant,,,10.2929022,123.8794908,
OpenStreetMap,Mambaling Pension House,guest_house,,,10.2909388,123.8732481,
OpenStreetMap,GS Tourist Inn,guest_house,,,10.2925944,123.8751708,
OpenStreetMap,inday sarah friend house,guest_house,,,10.3637499,123.9646833,
OpenStreetMap,Yellow Dormitory,hostel,,,10.330338,123.9020795,
OpenStreetMap,La Guardia Flats,hotel,,,10.3291964,123.9039798,
OpenStreetMap,Mahilum's Hotel,hotel,,,10.3735931,123.9603253,
OpenStreetMap,Hey Fellas guesthouse,hostel,,,10.3104407,123.9030115,
OpenStreetMap,Bulawan Küche,restaurant,,,10.3168148,123.9017227,
OpenStreetMap,Napao house,guest_house,,,10.1798583,123.7245909,
OpenStreetMap,Choobi Choobi,restaurant,,,10.3232269,123.9146235,
OpenStreetMap,Choobi Choobi,restaurant,,,10.3077467,124.0142431,
OpenStreetMap,Choobi Choobi,restaurant,,,10.2814146,123.8822849,
OpenStreetMap,Anytime Fitness,fitness_centre,,,10.3172042,123.9092063,
OpenStreetMap,Gusto,restaurant,,,10.3173942,123.9091151,
OpenStreetMap,SushiBoy,restaurant,,,10.3148586,123.9278761,
OpenStreetMap,The Cellar Door,bar,,,10.326754,123.9329895,
OpenStreetMap,Kona Villas,guest_house,,,10.3104012,124.0016522,
OpenStreetMap,Ibiza Beach Club,bar,,,10.3097692,124.0248769,
OpenStreetMap,Acasy Homes,guest_house,,,10.292355,123.96974,
OpenStreetMap,La Marings,camp_site,,,10.5893813,123.4805315,
OpenStreetMap,Red House Shabu Shabu,restaurant,,,10.3268113,123.9325608,
OpenStreetMap,fuente pension house,hotel,,,10.3108922,123.8940211,
OpenStreetMap,Sapang Gamay,information,,,10.9552702,123.9471619,
OpenStreetMap,Airmen's Village,camp_site,,,10.3086077,123.9666421,
OpenStreetMap,MCA Suites,hostel,,,10.3155998,123.8946561,
OpenStreetMap,The Birdseed,cafe,,,10.3183543,123.8962808,
OpenStreetMap,Rico's Lechon,restaurant,,,10.3183543,123.8961306,
OpenStreetMap,Tonyo's,restaurant,,,10.2580616,123.8179871,
OpenStreetMap,Braddex,restaurant,,,10.3014572,123.8710036,
OpenStreetMap,The Park Social,restaurant,,,10.3310256,123.9060736,
OpenStreetMap,Alemar,hotel,,,10.2957463,123.8979098,
OpenStreetMap,Terrace Garden Restaurant,restaurant,,,10.955336,123.3088462,
OpenStreetMap,TOM & TOM'S COFFEE,cafe,,,10.3130027,123.916715,
OpenStreetMap,Muring's,guest_house,,,10.364969,123.9192645,
OpenStreetMap,Ikkousha Ramen,restaurant,,,10.3304682,123.8986919,
OpenStreetMap,Coach Pacquiao Fitness and Wellness Center,fitness_centre,,,10.3305368,123.8985257,
OpenStreetMap,Ding Qua Qua Dimsum House,restaurant,,,10.3305843,123.8984237,
OpenStreetMap,Singli Mountain Resort,resort,,,10.1781888,123.6742119,
OpenStreetMap,Tops grill,restaurant,,,10.2840997,123.9946102,
OpenStreetMap,Gold mango grill,restaurant,,,10.2910512,123.9985243,
OpenStreetMap,Golden gate,restaurant,,,10.2828935,123.9933233,
OpenStreetMap,Holiday Plaza Hotel,hotel,,,10.308105,123.8957931,
OpenStreetMap,Bentang Food Craze,restaurant,,,10.3183192,123.9123605,
OpenStreetMap,One Java,internet_cafe,,,10.3114843,123.902131,
OpenStreetMap,Barangay Seoul,restaurant,,,10.3136456,123.8944196,
OpenStreetMap,Sugbro,restaurant,,,10.3135372,123.8944814,
OpenStreetMap,Cafe Talk Library,cafe,,,10.3170075,123.8927647,
OpenStreetMap,301 Ramos Street Sportsbar and Grill,bar,,,10.3081986,123.8957493,
OpenStreetMap,Deep Slope,yes,,,11.3483754,124.1203631,Dive Site
OpenStreetMap,Secret Wall,attraction,,,11.3501906,124.1158957,Dive Site
OpenStreetMap,Exotic House Reef,attraction,,,11.3291169,124.1260138,Dive Site
OpenStreetMap,Lighthouse,yes,,,11.3421901,124.1097625,Dive Site
OpenStreetMap,Los Bamboos,yes,,,11.3431335,124.108851,Dive Site
OpenStreetMap,Lapus-Lapus,yes,,,11.3461986,124.1024056,Dive Site
OpenStreetMap,Lapus-Lapus 2,yes,,,11.3485435,124.1023051,Dive Site
OpenStreetMap,Bogtong Bato,attraction,,,11.3512234,124.1027874,Dive Site
OpenStreetMap,Cafe Cesario,restaurant,,,10.3165432,123.9788073,
OpenStreetMap,Corona Del Mar Dock,beach_resort,,,10.2382095,123.8167761,
OpenStreetMap,Starbucks,cafe,,,10.316525,123.9792825,
OpenStreetMap,Seattle's Best Coffee,cafe,,,10.3164773,123.9798478,
OpenStreetMap,Cita's,restaurant,,,10.3151972,123.8923658,
OpenStreetMap,Kings Lechon,restaurant,,,10.4697103,123.701236,
OpenStreetMap,Mai2's Place,guest_house,,,10.8085178,123.3772151,
OpenStreetMap,Punod View Deck,viewpoint,,,10.522306,123.325355,
OpenStreetMap,Cordova Island Citi Tourist Inn,guest_house,,,10.2491088,123.9495062,
OpenStreetMap,Red's Cafe,cafe,,,10.3093597,123.8952814,
OpenStreetMap,Le Gab Cafe,cafe,,,10.3093241,123.8952237,
OpenStreetMap,2.000 LED Red Roses,attraction,,,10.2501769,123.9468939,
OpenStreetMap,"10,000 Roses Cafe",cafe,,,10.2567288,123.932311,
OpenStreetMap,Dessert Factory,restaurant,,,10.3069935,123.8964052,
OpenStreetMap,Shejoje Poshtel Hostel,hostel,,,10.3059111,123.8997331,
OpenStreetMap,Casa Vista,hotel,,,10.2738466,123.841846,
OpenStreetMap,Kuyang Coffee Shop,cafe,,,10.2997391,123.8894076,
OpenStreetMap,Pestaño Residence,attraction,,,11.0400651,124.0083202,
OpenStreetMap,Marlyn's Quality Puso,attraction,,,11.0400204,124.0081005,
OpenStreetMap,PRYSBETERIAN CHURCH,attraction,,,11.0404938,124.0080236,
OpenStreetMap,Kasagingan Ni Aida Alferez,attraction,,,11.0403187,124.0082835,
OpenStreetMap,To Sitio Nangka,attraction,,,11.0415851,124.0087724,
OpenStreetMap,Bogo City Fire Station,attraction,,,11.0394746,124.006729,
OpenStreetMap,Punod Viewing Deck,attraction,,,10.5225405,123.3258117,
OpenStreetMap,Blanco Dormitory,hostel,,,10.3011639,123.8979932,
OpenStreetMap,Mango Dessert Cafe,cafe,,,10.2836409,123.9943326,
OpenStreetMap,Cafe Rico,cafe,,,10.283752,123.9944521,
OpenStreetMap,Cafe Cukcuk,cafe,,,10.283818,123.9943225,
OpenStreetMap,Chic Cafe,cafe,,,10.3129503,123.9165581,
OpenStreetMap,Cardinal Coffea,cafe,,,10.3144393,123.8906963,
OpenStreetMap,Skipper Cafe,internet_cafe,,,10.3605992,123.9154391,
OpenStreetMap,Aqua Buddies Cebu,attraction,,,10.391205,124.0070004,
OpenStreetMap,The Boardwalk Resort,attraction,,,10.3908203,124.0065861,
OpenStreetMap,Skyway & Tambaya Eatery,restaurant,,,10.3197173,123.981049,
OpenStreetMap,Harrison Park,bar,,,10.3246786,123.9325412,
OpenStreetMap,Blue Reef Beach Resort,beach_resort,,,10.2646728,123.9870109,
OpenStreetMap,Lapyahan,restaurant,,,10.2466324,123.9377065,
OpenStreetMap,Tiya Helen,hotel,,,10.5690641,123.7188485,
OpenStreetMap,Esoy hotspring,attraction,,,10.7150326,123.9779691,
OpenStreetMap,Buhisan-Toong Tree Tunnel,attraction,,,10.3075733,123.8433523,
OpenStreetMap,Lettuce on the Rocks,attraction,,,10.378952,123.791042,
OpenStreetMap,Kawa-Kawa Falls,attraction,,,10.3131504,123.8253624,
OpenStreetMap,Kape Barbados,cafe,,,10.4830958,123.4165658,
OpenStreetMap,Aleu's Lodge,hostel,,,10.3788176,123.6417087,
OpenStreetMap,Carcar Travellers Inn,guest_house,,,10.1087565,123.6548986,
OpenStreetMap,Spa,sauna,,,10.1058093,123.6430338,
OpenStreetMap,Shamrock Pension House,guest_house,,,10.1162787,123.5076884,
OpenStreetMap,Acacia Steakhouse,restaurant,,,10.323382,123.8918651,
OpenStreetMap,Kape Sa Pantawan,cafe,,,10.4852325,123.4137475,
OpenStreetMap,The MusicBox,bar,,,10.4870731,123.4146141,
OpenStreetMap,Lapu-Lapu,memorial,,,10.3166846,123.8909945,
OpenStreetMap,La Maria,hotel,,,10.339809,123.9364151,
OpenStreetMap,Hide Away Grove Resort,beach_resort,,,11.1505967,123.7705658,
OpenStreetMap,Copenhagen East,hotel,,,10.329085,123.9523019,
OpenStreetMap,The CoffeBeans & TeaLeaf,cafe,,,10.317058,123.8938809,
OpenStreetMap,Bermejo Residences,guest_house,,,10.3197339,123.9139222,
OpenStreetMap,the Brawl,restaurant,,,10.305927,123.9016167,
OpenStreetMap,Jafar's,restaurant,,,10.3180985,123.8962492,
OpenStreetMap,4TH CABELLO,motel,,,10.3522753,123.9480373,
OpenStreetMap,Patio Isabel,restaurant,,,10.3364886,123.9119256,
OpenStreetMap,Med Cafe and Resto,cafe,,,10.302099,123.8869258,
OpenStreetMap,KOA,restaurant,,,10.3116839,123.9004322,
OpenStreetMap,Bugoy Bikers Hostel,hostel,,,10.3336532,123.89886,
OpenStreetMap,Maravilla Beach Club,beach_resort,,,10.8840494,123.8849017,
OpenStreetMap,Kevin Residences,hostel,,,10.3293704,123.8902011,
OpenStreetMap,Buwakan ni Alexandra,attraction,,,10.4304633,123.7761385,
OpenStreetMap,Sutokil Seafood & Souvenir Shops,restaurant,,,10.311242,124.0146824,
OpenStreetMap,Citi Pension House,guest_house,,,10.3128498,123.9116415,
OpenStreetMap,Gran Tierra Suites,hotel,,,10.3143316,123.8904546,
OpenStreetMap,Estaca Bay Gardens Conference Resort,beach_resort,,,10.4367054,124.0100522,
OpenStreetMap,Eddies Park,restaurant,,,10.5142974,124.0278246,
OpenStreetMap,Rañola Beach Resort,beach_resort,,,10.6318804,124.0284267,
OpenStreetMap,Agua Villa Beach Resort,resort,,,10.6472963,124.025774,
OpenStreetMap,Ocean View Beach Resort,resort,,,10.6674613,124.0212089,
OpenStreetMap,Ely's Garden Paradise,resort,,,10.6693696,124.0208843,
OpenStreetMap,Kenneth's Grill Food,restaurant,,,10.6730388,124.0189277,
OpenStreetMap,High Steps Pension,guest_house,,,10.6731916,124.0189934,
OpenStreetMap,Requerdo Beach Resort,resort,,,10.6816352,124.0156782,
OpenStreetMap,Vista Azul,beach_resort,,,10.6903199,124.0150854,
OpenStreetMap,Dungawan,restaurant,,,10.3073551,123.8606565,
OpenStreetMap,Alice Garden Hookah / Shisha,bar,,,10.3338581,123.9014762,
OpenStreetMap,Toppokiman,restaurant,,,10.3509693,123.9133062,
OpenStreetMap,St. Cecilia's Residence Hall,hostel,,,10.3512385,123.9134799,
OpenStreetMap,Cebu Brewing Co. Taproom,bar,,,10.3282465,123.9094375,
OpenStreetMap,Sprockets Café,cafe,,,10.3519522,123.9140653,
OpenStreetMap,Maya,restaurant,,,10.3279575,123.9101014,
OpenStreetMap,Nooodle,restaurant,,,10.3511176,123.9134198,
OpenStreetMap,Lolo Pinoy Grill,restaurant,,,10.3489021,123.9133504,
OpenStreetMap,Nanay Aida's Chicken Inasal,restaurant,,,10.3481694,123.9130013,
OpenStreetMap,Formosa Camp Resort,beach_resort,,,10.7616122,123.838184,
OpenStreetMap,Mama Kim Cafè,restaurant,,,10.3517368,123.9140298,
OpenStreetMap,GC Café,cafe,,,10.3118739,123.9120895,
OpenStreetMap,Casa Dos,restaurant,,,10.3271596,123.9002483,
OpenStreetMap,Bobba Jelly,cafe,,,10.3156429,123.8946297,
OpenStreetMap,University of San Carlos Museum,museum,,,10.3001387,123.8983121,
OpenStreetMap,Anislag Boundary,viewpoint,,,10.2380128,123.6593177,
OpenStreetMap,Private Memorial Garden,memorial,,,10.2594502,123.9512846,
OpenStreetMap,Jomao-as Memorial Garden,memorial,,,10.2597316,123.9509164,
OpenStreetMap,LM Dormitel,hostel,,,10.3494601,123.9132279,
OpenStreetMap,Mineski Infinity,internet_cafe,,,10.3509397,123.9132886,
OpenStreetMap,Climaco beach,apartment,,,10.2916283,124.010895,
OpenStreetMap,Ramon Magsaysay (1907–1957),memorial,,,10.4504746,123.8140732,
OpenStreetMap,Cafe Elim,cafe,,,10.3412694,123.9200968,
OpenStreetMap,Kasadya Park and Play,internet_cafe,,,10.2560926,123.9511653,
OpenStreetMap,Biological Museum,museum,,,10.354537,123.9093094,
OpenStreetMap,Semprun apartelle,apartment,,,10.3035589,123.8933402,
OpenStreetMap,Rosedale Suites,apartment,,,10.3508671,123.9132413,
OpenStreetMap,lki Drum Yakiniku,restaurant,,,10.3091324,123.9135242,
OpenStreetMap,Tavolata,restaurant,,,10.3415217,123.9195297,
OpenStreetMap,Mama Carmen's Bakahan,restaurant,,,10.300374,123.8750891,
OpenStreetMap,Tagay Bar,bar,,,10.3004132,123.8749882,
OpenStreetMap,Hope dormitory,apartment,,,10.3037007,123.8938544,
OpenStreetMap,Sileo Bed & Breakfast,guest_house,,,10.4266838,123.7767821,
OpenStreetMap,the Residenced,hotel,,,10.6174652,124.2845576,
OpenStreetMap,Travelers inn motel,motel,,,10.3065376,123.9115906,
OpenStreetMap,Kapel,cafe,,,10.3124905,123.8955117,
OpenStreetMap,Kandugyap House by the sea,hotel,,,11.1469857,123.7869671,
OpenStreetMap,Ma Benita,picnic_site,,,10.8684761,124.0460207,
OpenStreetMap,Molon's Apartment,apartment,,,10.2947729,123.884172,
OpenStreetMap,UP Oblation,memorial,,,10.2670737,123.8739715,
OpenStreetMap,A Cafe Cebu,cafe,,,10.3168922,123.8922595,
OpenStreetMap,Captain A’s Seafood Grill,restaurant,,,10.3145539,123.8904427,
OpenStreetMap,STK ta bai! at Paoliti’s Seafood House,restaurant,,,10.3132672,123.89033,
OpenStreetMap,Vikings,restaurant,,,10.3120437,123.9188095,
OpenStreetMap,Isla Sugbu Seafood City,restaurant,,,10.3224119,123.9050869,
OpenStreetMap,Garden Cafe,restaurant,,,10.3178728,123.9069668,
OpenStreetMap,Feria,restaurant,,,10.3097657,123.9194593,
OpenStreetMap,Scape Skydeck,restaurant,,,10.3233926,123.9729013,
OpenStreetMap,CookPub Korean Bistro,restaurant,,,10.3261566,123.9761317,
OpenStreetMap,Villa Celina 2B,viewpoint,,,10.2478998,123.8095472,
OpenStreetMap,Casa Verde,restaurant,,,10.3189791,123.9050592,
OpenStreetMap,Sugbu Suites,hostel,,,10.2963877,123.9019557,
OpenStreetMap,Jackoona_24,internet_cafe,,,10.3208503,123.8989692,
OpenStreetMap,Baring's Boarding House,hostel,,,10.4803742,123.4135101,
OpenStreetMap,Josh Hotel,hostel,,,10.4982423,123.7153289,
OpenStreetMap,Lanz Pizza,restaurant,,,10.3108671,123.9031689,
OpenStreetMap,Eljoy Beach Resort,guest_house,,,10.5541081,123.4701701,
OpenStreetMap,Joaquin Runway View Grill,restaurant,,,10.3132534,123.989596,
OpenStreetMap,Bacalla Campsite,camp_site,,,10.2044147,123.6940641,
OpenStreetMap,Michell's Crashpad,hotel,,,10.2900778,123.8749672,
OpenStreetMap,Atelier Residences Condominium,apartment,,,10.319304,123.8928224,
OpenStreetMap,Live Life!,restaurant,,,10.3182016,123.8958637,
OpenStreetMap,Mike & Dioses Beachcottage Cafe,cafe,,,11.3299654,124.1217308,
OpenStreetMap,The Backstory Burger + Cafe,cafe,,,10.3111392,123.9032324,
OpenStreetMap,Tatope Travel Lodge,guest_house,,,10.1089315,123.6542833,
OpenStreetMap,Buffet 101,restaurant,,,10.3270266,123.9325299,
OpenStreetMap,Albur's All In Pizza Burger Grill,restaurant,,,10.3255444,123.9115747,
OpenStreetMap,Revilla's House,guest_house,,,11.1704197,123.7244927,
OpenStreetMap,Wingers Unlimited,restaurant,,,10.3105467,123.8957232,
OpenStreetMap,Starbucks,cafe,,,10.3191539,123.9053433,
OpenStreetMap,Borussia German Restaurant and Bakery,restaurant,,,10.7346161,124.0121453,
OpenStreetMap,Cucina Carmencita,restaurant,,,10.6226688,124.0260625,
OpenStreetMap,cebu,information,,,10.3030419,123.9863128,
OpenStreetMap,TierraNava,apartment,,,10.1154404,123.6433352,
OpenStreetMap,Top of Cebu,restaurant,,,10.3715959,123.8708977,
OpenStreetMap,Mohon,boundary_stone,,,10.5913307,123.9070846,
OpenStreetMap,Fmidc hub,guest_house,,,10.3217142,123.9253088,
OpenStreetMap,Hendy's Diner,restaurant,,,10.3333039,123.9109828,
OpenStreetMap,Son-Goha Onigirazu Donburi,restaurant,,,10.3333468,123.9110597,
OpenStreetMap,Cafe Engelberg,cafe,,,10.2848621,123.9683825,
OpenStreetMap,Double Dough Tango Pizzeria,restaurant,,,10.2849624,123.9685086,
OpenStreetMap,Cafe Cherokawa,cafe,,,10.285068,123.9686561,
OpenStreetMap,Kangaroos Place,bar,,,10.2907257,123.9902457,
OpenStreetMap,Ocean Garden,restaurant,,,10.3361998,123.9324758,
OpenStreetMap,The Coffee Bean & Tea Leaf,cafe,,,10.3202673,123.9107749,
OpenStreetMap,Palm Grass,hotel,,,10.298487,123.8999122,
OpenStreetMap,Sampan Garden Resort,yes,,,10.5119979,124.0135616,
OpenStreetMap,CoCina de la Casa,restaurant,,,10.3191648,123.898965,
OpenStreetMap,Cebu Lumpia House,restaurant,,,10.2929229,123.8987429,
OpenStreetMap,Coffee Way,cafe,,,10.3248244,123.9773896,
OpenStreetMap,Kai Restaurant,restaurant,,,10.3173323,123.8933257,
OpenStreetMap,Palmbeach Resort & Spa,resort,,,10.315992,124.0281385,
OpenStreetMap,Fiesta Bay Seafood Restaurant,restaurant,,,10.3116273,124.0230047,
OpenStreetMap,League Sports Bar,bar,,,10.3257355,123.9188209,
OpenStreetMap,"D ""New"" Inn",motel,,,10.3048822,123.9123691,
OpenStreetMap,Crown Port View Hotel,hotel,,,10.305427,123.9131475,
OpenStreetMap,Snowsheen Restaurant,restaurant,,,10.2971018,123.8977069,
OpenStreetMap,Moonrish Hostel,hostel,,,10.2971785,123.8976791,
OpenStreetMap,Sweat Gym,fitness_centre,,,10.2972683,123.8976313,
OpenStreetMap,Be One Hostel,hostel,,,11.331184,124.118545,
OpenStreetMap,The big dipper,attraction,,,10.0909516,123.6658205,
OpenStreetMap,Vegan Iligan,restaurant,,,10.309565,123.9592043,
OpenStreetMap,Hardcore Gym,fitness_centre,,,10.3218243,123.8859959,
OpenStreetMap,Sunday Hostel,hostel,,,10.3185649,123.9028255,
OpenStreetMap,Red Lizard,restaurant,,,10.3181016,123.9058027,
OpenStreetMap,Puswak Resto Bar,restaurant,,,10.955007,123.3122163,
OpenStreetMap,Tropical Breeze Hostel Cebu,hostel,,,10.3315558,123.9012883,
OpenStreetMap,Casa Andrea,hostel,,,11.1529456,123.7986064,
OpenStreetMap,Malapascua Garden Resort,hotel,,,11.3290727,124.1164036,
OpenStreetMap,Lyrics Family KTV,bar,,,10.3112342,123.8962395,
OpenStreetMap,Pochero Sa Sugbo,restaurant,,,10.3109941,123.8964514,
OpenStreetMap,Passion,bar,,,10.3111419,123.8962208,
OpenStreetMap,RJC Bamboo Resto Bar & Village,restaurant,,,10.2564408,123.8659333,
OpenStreetMap,Centrale Music Bar,bar,,,10.2522491,123.8603543,
OpenStreetMap,Vallehermoso Gymnasium,sports_centre,,,10.3360444,123.3266486,
OpenStreetMap,Traveler's Lounge,information,,,10.3035168,123.9120103,with free shuttle bus service
OpenStreetMap,Wild Geese Beach Resort,resort,,,10.3540039,123.6075649,
OpenStreetMap,Breeze Cafe & Restaurant,restaurant,,,10.3555558,123.6102297,
OpenStreetMap,Ocean Breeze Resort,resort,,,10.3554952,123.6101295,
OpenStreetMap,Cowboy Beach Resort,resort,,,10.3561044,123.610907,
OpenStreetMap,Naomi's Cafe,cafe,,,10.3565591,123.6115631,
OpenStreetMap,Estrella Del Mar,resort,,,10.3596163,123.614714,
OpenStreetMap,Estrella Del Mar,restaurant,,,10.3596666,123.6147164,
OpenStreetMap,Chateau by the Sea,hotel,,,10.3147021,124.0269811,
OpenStreetMap,uh-huh house,hotel,,,10.330965,123.9186249,
OpenStreetMap,Ma-an Coffee Factory,cafe,,,10.3432545,123.9137181,
OpenStreetMap,ALT Dormitory,hostel,,,10.2980953,123.9466602,
OpenStreetMap,ALT Fitness Gym,fitness_centre,,,10.2979844,123.9467823,
OpenStreetMap,Sheriff's Grill,restaurant,,,10.2940731,123.9454747,
OpenStreetMap,Calda Pizza,restaurant,,,10.2926483,123.9453161,
OpenStreetMap,Haruhay Dream Resort,hotel,,,10.2646317,123.9819698,
OpenStreetMap,Haruhay Restaurant,restaurant,,,10.2645557,123.9818478,
OpenStreetMap,Bleachers Barbeque,restaurant,,,10.3129963,123.9199619,
OpenStreetMap,Frankfurter Deluxe Inn,hotel,,,10.3031137,123.9025705,
OpenStreetMap,Ocean Pearl Resort,beach_resort,,,10.2646416,123.9872484,
OpenStreetMap,Allson's Inn,hotel,,,10.309465,123.90513,
OpenStreetMap,Contact Point Restobar,bar,,,10.3136256,123.8934152,
OpenStreetMap,Jazz Chillin' Restaurant & Music Lounge,restaurant,,,10.3082343,123.9012056,
OpenStreetMap,Crown Regency Residences,hotel,,,10.3242633,123.8828849,
OpenStreetMap,Karancho Beach Club,resort,,,10.2858105,123.9985506,
OpenStreetMap,MJ Square,restaurant,,,11.155884,123.8071827,
OpenStreetMap,San Roque Chapel,chalet,,,11.1637454,123.7393426,
OpenStreetMap,ramon apartment,apartment,,,10.2406422,123.7764339,
OpenStreetMap,Marcelo Fernan,memorial,,,10.3224156,123.9694234,
OpenStreetMap,Kofi Aroma & Bar,cafe,,,10.2530672,123.8559856,
OpenStreetMap,Bangketo Art & Meals,cafe,,,10.3015716,123.8942362,
OpenStreetMap,Go Pension House,guest_house,,,10.3018556,123.8942281,
OpenStreetMap,Laaw Lagoon,attraction,,,11.344778,123.9014583,
OpenStreetMap,Bebot's,cafe,,,11.3281118,124.1183302,
OpenStreetMap,A’s GuestHouse,guest_house,,,10.3099648,123.9879898,
OpenStreetMap,Azzela heights,viewpoint,,,10.2821016,123.8001647,
OpenStreetMap,La Isla Bonita,restaurant,,,11.3280398,124.116933,
OpenStreetMap,La Briana Guest House,hotel,,,11.1559941,123.8012702,
OpenStreetMap,Valleyfront Hotel,hotel,,,10.308655,123.8862528,
OpenStreetMap,Abaca Baking Company,restaurant,,,10.3301993,123.9056881,
OpenStreetMap,Oppa Cafe,cafe,,,10.3011381,123.8986118,
OpenStreetMap,The Civet Coffee,cafe,,,10.3302963,123.906201,
OpenStreetMap,Light House,restaurant,,,10.3402138,123.9111089,
OpenStreetMap,The Tavern,bar,,,10.3091113,123.9014939,
OpenStreetMap,The Mezanine Cafe,cafe,,,10.3069105,123.8995852,
OpenStreetMap,Lynn's Pension House,guest_house,,,10.3011617,123.9000242,
OpenStreetMap,Marvie's Pension House,guest_house,,,10.2978484,123.9036591,
OpenStreetMap,ENCE Pension House,guest_house,,,10.3008372,123.9027867,
OpenStreetMap,Gold Bean Coffee,cafe,,,10.3298765,123.9008541,
OpenStreetMap,MIO,restaurant,,,10.3250114,123.9071564,
OpenStreetMap,32 Umber,cafe,,,10.3219594,123.9045298,
OpenStreetMap,Lionfish backpackeur,hostel,,,11.3293376,124.1164774,
OpenStreetMap,Cafe Don Don,cafe,,,10.3284983,123.903684,
OpenStreetMap,Brique,restaurant,,,10.3291866,123.9024056,
OpenStreetMap,Krave Cafe,cafe,,,10.3294248,123.9018629,
OpenStreetMap,Crowne Garden Hotel,hotel,,,10.3296278,123.9015019,
OpenStreetMap,AA BBQ,restaurant,,,10.3297257,123.90121,
OpenStreetMap,JCA Pizza,restaurant,,,10.3301023,123.9005938,
OpenStreetMap,G-Spot,bar,,,10.3300652,123.9006547,
OpenStreetMap,Avrill’s,restaurant,,,11.3283989,124.1173154,
OpenStreetMap,Celbyrne Pension Hauz,guest_house,,,10.2520291,123.8390244,
OpenStreetMap,VF Pension House,hotel,,,10.2497524,123.8389266,
OpenStreetMap,Cafe Sam,cafe,,,10.4004633,123.99989,
OpenStreetMap,Queensland Talisay,hotel,,,10.2563097,123.8299396,
OpenStreetMap,Han Guk Kwan,restaurant,,,10.3297031,123.9006904,
OpenStreetMap,The Weekend,restaurant,,,10.3250152,123.9086082,
OpenStreetMap,Pen Cafe & Bistro,restaurant,,,10.3251265,123.9085211,
OpenStreetMap,Tom N Toms,cafe,,,10.3249514,123.9084688,
OpenStreetMap,RM Luna Grand,restaurant,,,10.2918699,123.9035958,
OpenStreetMap,Gratitude Pension,hotel,,,10.3040822,123.8973022,
OpenStreetMap,Cafe Sampaguita,cafe,,,10.2933634,123.9028978,
OpenStreetMap,Gilutongan Payag Seafood,restaurant,,,10.2096343,123.9895447,
OpenStreetMap,Gilotungan Payag Seafood,restaurant,,,10.2094869,123.9886046,
OpenStreetMap,Mc Liefz Pension House,guest_house,,,10.2984939,123.8988,
OpenStreetMap,Pitlane Restobar,bar,,,10.3322729,123.9349062,
OpenStreetMap,Maïa Beach Resort,beach_resort,,,11.1411576,123.7375658,
OpenStreetMap,Tugkaran Guest House,guest_house,,,10.3135679,123.8942079,
OpenStreetMap,Korean Recreation Area,information,,,10.2621791,123.959573,
OpenStreetMap,Pipeline,bar,,,10.331886,123.9051377,
OpenStreetMap,Divergems Hostel & Diving Center,guest_house,,,11.3299204,124.1155931,
OpenStreetMap,Stranded,bar,,,10.5667256,124.0246893,
OpenStreetMap,Pacific Tourist Inn,guest_house,,,10.2949758,123.8991343,
OpenStreetMap,Camp Bato,camp_site,,,10.0141421,123.5712668,
OpenStreetMap,Baguio de Cebu campsite,camp_site,,,10.4531274,123.8142468,
OpenStreetMap,Bella's Bites,cafe,,,10.3260489,123.9776883,
OpenStreetMap,Civet Coffee,cafe,,,10.3077252,124.0122717,
OpenStreetMap,capex,attraction,,,10.3459474,123.9445044,
OpenStreetMap,Sugbo Leisure Lodge,guest_house,,,10.3129631,123.8870319,
OpenStreetMap,HPC BEACH RESORT,beach_resort,,,11.3269117,124.116881,
OpenStreetMap,Monbase,attraction,,,10.9488699,123.3212631,
OpenStreetMap,Tingson Resort,attraction,,,10.9526886,123.3271282,
OpenStreetMap,SITOY MEMORIAL GARDENS,memorial,,,10.2605162,123.9511894,
OpenStreetMap,Friendly’s Guesthouse,guest_house,,,10.3113265,123.9017169,
OpenStreetMap,Calda Pizza,restaurant,,,10.1043234,123.6411722,
OpenStreetMap,Seattle's Best Coffee,cafe,,,10.3188675,123.9050246,
OpenStreetMap,Roof Deck - Harolds Hotel,bar,,,10.3197124,123.8991418,
OpenStreetMap,The Coffee Bean & Tea Leaf,cafe,,,10.3124166,123.9761605,
OpenStreetMap,Cafe Sarree,cafe,,,10.3172237,123.8907254,
OpenStreetMap,Lihana @ Rumkins Barbeque Restaurant,restaurant,,,10.3199865,123.9030676,
OpenStreetMap,Basic,bar,,,10.3298438,123.9097558,
OpenStreetMap,Porter Marina,attraction,,,10.3594156,124.0000788,
OpenStreetMap,Tita Marlyn's House,guest_house,,,10.3248818,123.9486434,
OpenStreetMap,Mangosix Cafe & Desserts,cafe,,,10.328839,123.902939,
OpenStreetMap,Murals Hostel & Cafe,hostel,,,10.3244161,123.9120044,
OpenStreetMap,The Daily Grind Cafe,cafe,,,10.32435,123.9120724,
OpenStreetMap,Mber.Net,internet_cafe,,,10.2847937,123.8718829,
OpenStreetMap,Saint Arnold Janseen,memorial,,,10.2821756,123.8690025,
OpenStreetMap,Apartments,apartment,,,10.3059712,123.8844609,
OpenStreetMap,Yokoks Gym,fitness_centre,,,10.3755696,123.9595241,
OpenStreetMap,White villa hostel,hostel,,,10.3472375,123.9269142,
OpenStreetMap,Michael Angelo Coffee And Tea Restaurant,cafe,,,10.316816,123.8880459,
OpenStreetMap,Sirao Pictorial Garden,attraction,,,10.4060923,123.8655351,
OpenStreetMap,KapeNaGusto,cafe,,,10.953902,123.3077628,
OpenStreetMap,Sea & Blue Jumbo,restaurant,,,10.2949012,123.9990021,
OpenStreetMap,Mactchan,restaurant,,,10.3040427,124.0072487,
OpenStreetMap,Ven,apartment,,,10.2468801,123.8394634,
OpenStreetMap,Tagay,bar,,,10.3164891,123.8872872,
OpenStreetMap,Bharat Spice,restaurant,,,10.331419,123.9084312,
OpenStreetMap,The Sharks Tail Dive Resort,dive_centre,,,11.3282658,124.1188337,
OpenStreetMap,Duyan Viewpoint,viewpoint,,,10.3630671,123.8508347,
OpenStreetMap,Chalet Campsite Babag,camp_site,,,10.3653951,123.8653981,
OpenStreetMap,Park Place Beach Resort,beach_resort,,,10.3179261,123.5822613,
OpenStreetMap,D' Rizing Star Beach Resort,beach_resort,,,10.3197713,123.5814943,
OpenStreetMap,Carsen Beach Resort,beach_resort,,,10.3204746,123.5810201,
OpenStreetMap,Tampisao Beach Resort,beach_resort,,,10.3234904,123.5803629,
OpenStreetMap,Looie Beach Resort,beach_resort,,,10.3251768,123.5806521,
OpenStreetMap,Tajao Seaside Haven Resort,beach_resort,,,10.3265827,123.5812312,
OpenStreetMap,Virgin Mary,artwork,,,10.2826654,123.732799,
OpenStreetMap,Borderside Mountain Resort,resort,,,10.4895553,123.9824727,
OpenStreetMap,WWII Foxholes,ruins,,,10.3809136,123.6600117,
OpenStreetMap,Chiringuito,restaurant,,,11.3269582,124.1124497,
OpenStreetMap,Tepanee gym,fitness_centre,,,11.3273946,124.1124828,
OpenStreetMap,A&A Pension House,guest_house,,,10.3820678,123.6428204,
OpenStreetMap,LUMINA CARCAR,apartment,,,10.1467648,123.6463124,
OpenStreetMap,Ka-Tilong Sunflower Farm,attraction,,,10.410094,123.826819,
OpenStreetMap,21 km coffee,cafe,,,10.4097902,123.8194073,
OpenStreetMap,Busay Green Canopy,restaurant,,,10.3728235,123.8734314,
OpenStreetMap,Capilla Sta. Ana Museum & Maze Garden,attraction,,,10.3700836,123.627031,
OpenStreetMap,Ocean Fresh,restaurant,,,10.385338,123.6489773,
OpenStreetMap,Herschel Cafe,cafe,,,10.3852826,123.6488604,
OpenStreetMap,Rizal Monument,memorial,,,10.374806,123.6339117,
OpenStreetMap,Giggles Island Paradise Resort,beach_resort,,,11.3171111,123.8859297,
OpenStreetMap,Willie Batindaan Resort,beach_resort,,,11.3052918,123.8987741,
OpenStreetMap,Los Compañeros,restaurant,,,10.2508965,123.8053528,
OpenStreetMap,Jom’s Vegan Haven,restaurant,,,10.3056165,123.8973169,
OpenStreetMap,Othelo's Special B,restaurant,,,10.8851079,123.3471418,
OpenStreetMap,Leon Kilat Monument,memorial,,,10.1048208,123.6412036,
OpenStreetMap,Jose Rizal Monument,memorial,,,10.105341,123.6409836,
OpenStreetMap,Wellnessland Health Institute,restaurant,,,10.3052269,123.9008819,
OpenStreetMap,RF Suites,hotel,,,10.3050598,123.8968752,
OpenStreetMap,Tokyo Table,restaurant,,,10.3266949,123.9328471,
OpenStreetMap,Harbor City,restaurant,,,10.3218495,123.9332677,
OpenStreetMap,Chika-an,restaurant,,,10.3232482,123.978688,
OpenStreetMap,Urban Deca Homes Tisa,apartment,,,10.3078403,123.8667434,
OpenStreetMap,Mr. M Restaurant,restaurant,,,10.1113236,123.6710079,
OpenStreetMap,Airbnb Apartment,apartment,,,10.3032041,123.8731766,
OpenStreetMap,Airbnb 2,apartment,,,10.2456544,123.8502824,
OpenStreetMap,Airbnb,apartment,,,10.2466891,123.8513308,
OpenStreetMap,Dolce Coffee,restaurant,,,10.3363826,123.896944,
OpenStreetMap,"Sto. Rosario, Aloguinsan",guest_house,,,10.1956022,123.6161767,
OpenStreetMap,Pangpang Bar & Restaurant,restaurant,,,11.1478393,123.7926341,
OpenStreetMap,RF Suites,hotel,,,10.3051595,123.8967572,
OpenStreetMap,Riyala Apartments,apartment,,,10.3328391,123.9344292,
OpenStreetMap,Cordova Reef Village Resort,beach_resort,,,10.2050244,123.9907929,
OpenStreetMap,Oyster Bay Restaurant,restaurant,,,10.3351428,123.950028,
OpenStreetMap,YMCA Cebu,hostel,,,10.3042453,123.895342,
OpenStreetMap,Monad Shoal,attraction,,,11.3133913,124.1947241,
OpenStreetMap,Neverland,guest_house,,,11.3419383,124.1129284,
OpenStreetMap,raince internet hub,internet_cafe,,,10.5205604,124.0247477,
OpenStreetMap,Fort's Abuhan,restaurant,,,10.5030377,123.7172786,
OpenStreetMap,KM 33 Grill,restaurant,,,10.4265373,123.7764406,
OpenStreetMap,Acrige Apartelle,apartment,,,11.0508178,124.0063461,
OpenStreetMap,Shirogi Pan de Kofi,cafe,,,10.7279401,123.8264344,
OpenStreetMap,Bantayan Burritos Company,restaurant,,,11.1555677,123.8071807,
OpenStreetMap,La Montaña Subdivision,information,,,10.4052498,123.9260741,
OpenStreetMap,Mad Monkey,hostel,,,10.3068918,123.9026511,
OpenStreetMap,Talisay Landing Memorial,memorial,,,10.2416855,123.8492523,
OpenStreetMap,Sidlak Danao,artwork,,,10.5185378,124.0289332,
OpenStreetMap,neri’s ville,information,,,10.4759681,123.8903385,
OpenStreetMap,Ich’s Place,chalet,,,10.2952669,123.8727519,
OpenStreetMap,Tiki bar restaurant,bar,,,11.1552157,123.8075702,
OpenStreetMap,Big Jel's,restaurant,,,11.1554072,123.8071364,
OpenStreetMap,Goske,restaurant,,,11.1555995,123.8066871,
OpenStreetMap,Coktails beach,bar,,,11.1518208,123.8063419,
OpenStreetMap,Carl’s Island Inn,guest_house,,,11.1521145,123.7959914,
OpenStreetMap,Pizzeria la Filomina,restaurant,,,11.1587189,123.8058564,
OpenStreetMap,Paradiso Beach Campsite,camp_site,,,11.1463216,123.7810435,
OpenStreetMap,Batayan Island Nature Park and Resort,beach_resort,,,11.2129924,123.7668801,
OpenStreetMap,Biano's Pizza,restaurant,,,10.3084676,123.7095894,
OpenStreetMap,Organico AgriBusiness Ventures Piggery Farm,attraction,,,10.0544312,123.5180864,
OpenStreetMap,Belen’s Inato,restaurant,,,10.4264296,123.7764265,
OpenStreetMap,Oyster Bay,restaurant,,,10.3353525,123.9501966,
OpenStreetMap,Jesette grill and cafe,restaurant,,,10.393357,123.984553,
OpenStreetMap,Fuel,restaurant,,,10.521378,124.0299593,
OpenStreetMap,Hukad,restaurant,,,10.5212701,124.0297407,
OpenStreetMap,May's Homestay,guest_house,,,10.3048554,123.9011034,
OpenStreetMap,Oakridge Residences,apartment,,,10.3410402,123.9049352,Vacation Rental House
OpenStreetMap,Prescilla house,guest_house,,,10.2354052,123.3163877,
OpenStreetMap,Shipwreck Beach Cafe,restaurant,,,11.3423319,124.111391,
OpenStreetMap,ABC Bancale Apartments,guest_house,,,10.3121505,124.0080938,
OpenStreetMap,Pondside Cottage Inn,guest_house,,,10.3747383,123.3319601,
OpenStreetMap,Griphon Gaming Station,internet_cafe,,,10.2836242,123.8553894,
OpenStreetMap,Mick's Eatery,cafe,,,10.3355877,123.3260433,
OpenStreetMap,Exotic,bar,,,11.3285536,124.1209931,
OpenStreetMap,Jose Rizal Monument,memorial,,,10.081219,124.1119929,
OpenStreetMap,Fat Dois,restaurant,,,10.3424702,123.9174779,
OpenStreetMap,Eric’s restaurant,restaurant,,,11.3445348,124.1102766,
OpenStreetMap,Navaja Heights Campsite,camp_site,,,10.3882774,123.7202861,
OpenStreetMap,Navaja Heights,viewpoint,,,10.3884014,123.7204137,
OpenStreetMap,Dajoa,restaurant,,,10.2853934,123.9695949,
OpenStreetMap,Glen Paran's House,guest_house,,,10.3059469,123.7337153,
OpenStreetMap,Drip and Draft,cafe,,,10.3456373,123.9092505,
OpenStreetMap,Giuseppe Pizzeria & Sicilian Roast,restaurant,,,10.3442774,123.9096237,
OpenStreetMap,Hidden Valley Infinity Pool,attraction,,,10.2710557,123.6697577,
OpenStreetMap,Hidden Valley Raging River,attraction,,,10.270939,123.6696491,
OpenStreetMap,Hidden Valley Wavepool Resort,attraction,,,10.2699644,123.6683857,
OpenStreetMap,Abaca Baking Company,cafe,,,10.3280689,123.9098613,
OpenStreetMap,Cafe Berry,cafe,,,10.3417522,123.9196421,
OpenStreetMap,Lapyahan Public Beach,beach_resort,,,11.0825334,123.9350515,
OpenStreetMap,SF Cantina Restobar & Accomodation,hotel,,,11.1509102,123.8002399,Hotel with beachbar
OpenStreetMap,Mt. Lanigid,camp_site,,,10.4623757,123.952026,
OpenStreetMap,Coffee Dream,cafe,,,10.3256551,123.9347505,
OpenStreetMap,Dakasi,restaurant,,,10.325702,123.9347064,
OpenStreetMap,Siknoy,restaurant,,,10.3257535,123.9346749,
OpenStreetMap,Veranda,restaurant,,,10.3259514,123.9345144,
OpenStreetMap,Mingla Rooms,hostel,,,10.24383,123.794151,
OpenStreetMap,Rhea's Guesthouse,apartment,,,11.1553278,123.8010413,
OpenStreetMap,IN & GO hotel,hotel,,,10.2915146,123.8593651,
OpenStreetMap,Yūshōken,restaurant,,,10.3425373,123.9180546,
OpenStreetMap,JMJ ISLAND HUB,apartment,,,11.155577,123.80027,
OpenStreetMap,Bo’s Coffee,cafe,,,10.3158388,123.978133,
OpenStreetMap,pangeas beach resort and hotel,hotel,,,10.3722212,124.008411,
OpenStreetMap,K and K Homes,apartment,,,10.3059807,123.8746578,
OpenStreetMap,Thai-Phoon,restaurant,,,11.1557237,123.8077306,
OpenStreetMap,Aroi Mak,restaurant,,,11.3277844,124.113798,
OpenStreetMap,Ristorante Angelina,restaurant,,,11.327563,124.1128644,
OpenStreetMap,Hippocampus,bar,,,11.3268854,124.1176842,
OpenStreetMap,Balay sa Busay,restaurant,,,10.3774614,123.8727031,
OpenStreetMap,Camp Sawi,viewpoint,,,11.1500776,123.7501096,
OpenStreetMap,Camp Wagi,viewpoint,,,11.1481334,123.7506642,
OpenStreetMap,Tambayan Sa Pardo,restaurant,,,10.2755427,123.8523099,
OpenStreetMap,Abuhan,restaurant,,,10.3109395,123.8964029,
OpenStreetMap,Figaro,cafe,,,10.3106266,123.8972009,
OpenStreetMap,Batiancila apartaments,apartment,,,11.1865552,123.7173258,
OpenStreetMap,Jumping cliff,viewpoint,,,11.3468337,124.1062738,A 12m cliff to see the sunset and jump directly into the sea
OpenStreetMap,Barakada budget room,hostel,,,10.3236705,123.9161651,
OpenStreetMap,Insikwate,cafe,,,10.4893497,123.4000136,We process Cacao seeds to Cacao Tablea...
OpenStreetMap,Grezbell Restaurant,restaurant,,,11.1665729,123.7179792,
OpenStreetMap,"Tol! Sugba, Kambingan, Larangan atbp.",restaurant,,,10.3134244,123.8900067,
OpenStreetMap,1878 Restaurant,restaurant,,,10.1070217,123.6407868,
OpenStreetMap,Cristo Rey Monument,artwork,,,10.1057393,123.6407311,
OpenStreetMap,Painted House,yes,,,10.1023653,123.642465,
OpenStreetMap,Capilla de Cofradia de San Jose de Luanluan,attraction,,,10.1071009,123.6412033,
OpenStreetMap,Assumption of Mary Monument,artwork,,,10.1054151,123.6405428,
OpenStreetMap,Night beer garden,bar,,,10.1036648,123.6403762,
OpenStreetMap,Night beer garden,bar,,,10.1030736,123.6402704,
OpenStreetMap,St. Lazarus Catholic Cemetery,memorial,,,10.0966598,123.6382201,
OpenStreetMap,Molocaboc Island,viewpoint,,,10.9585461,123.564133,
OpenStreetMap,Bonchon Chicken,restaurant,,,10.3133341,123.97703,
OpenStreetMap,Pool,information,,,10.3258847,123.8490068,
OpenStreetMap,Megs Restobar,restaurant,,,10.491776,123.3906801,
OpenStreetMap,Kapehan sa Pantawan,cafe,,,10.4851142,123.4134827,
OpenStreetMap,Sis House,apartment,,,10.2830553,123.9509305,
OpenStreetMap,MB Balbacua,restaurant,,,10.4860576,123.4074245,
OpenStreetMap,Marino Bungalows,guest_house,,,11.1534787,123.8035167,
OpenStreetMap,Soba Kamakura,restaurant,,,10.3473543,123.9292508,
OpenStreetMap,Turning Wheels Craft Brewery (new location),bar,,,10.3198466,123.9135034,
OpenStreetMap,Lagaan,guest_house,,,10.6379791,123.3617422,
OpenStreetMap,Kekoy Lodge,hotel,,,11.2740499,124.0615745,
OpenStreetMap,пляж,guest_house,,,10.4895908,123.7056811,
OpenStreetMap,NeoNeo,restaurant,,,10.3251666,123.914257,
OpenStreetMap,Dae Ga,restaurant,,,10.3265324,123.9329033,
OpenStreetMap,Fizeek Fitness and Yoga Center,fitness_centre,,,10.3000794,123.9062591,
OpenStreetMap,Green One Hotel Mactan,hotel,,,10.2571778,123.9694611,
OpenStreetMap,StopOver Hostel,hostel,,,10.3167278,123.9683913,
OpenStreetMap,Bridge lookout,viewpoint,,,10.3272257,123.9661252,
OpenStreetMap,Local restaurant,restaurant,,,10.2970809,123.8987432,
OpenStreetMap,Café triBU,cafe,,,10.3056483,123.8968796,
OpenStreetMap,Nomad's Hub,hostel,,,10.3056028,123.8977274,
OpenStreetMap,Hotel 43,resort,,,10.2398275,123.8385812,
OpenStreetMap,Gorden Park,park,,,10.239842,123.8385964,
OpenStreetMap,Dorbe's kan-anan,restaurant,,,10.2398523,123.8386662,
OpenStreetMap,The 8th Mug Dine & Brew,cafe,,,10.3164981,123.8921889,
OpenStreetMap,Jacynth Urban Hotel,hotel,,,10.2958332,123.9042064,
OpenStreetMap,Country Corner guest house,guest_house,,,11.1563067,123.8074422,
OpenStreetMap,The Partridge Guesthouse,guest_house,,,10.3182708,123.9019779,
OpenStreetMap,Queen sland motel,hostel,,,10.3107566,123.9595818,
OpenStreetMap,Magellan's Cross,yes,,,10.2935694,123.9019583,
OpenStreetMap,Lapulapu,memorial,,,10.3108102,124.0154921,
OpenStreetMap,The SYKE Studios,guest_house,,,11.1538632,123.8042519,
OpenStreetMap,TheEdge Sibonga-Fil-Am,restaurant,,,10.0154827,123.6191284,
OpenStreetMap,SAN ROQUE CHAPEL and SPORT COMPLEX,attraction,,,10.2793811,123.9342915,
OpenStreetMap,Coral Reef Hotel,apartment,,,10.2722648,123.9868673,
OpenStreetMap,Fly a Gyro Cebu,attraction,,,10.0109034,123.4212595,
OpenStreetMap,Honeybee Royal Inn,guest_house,,,10.3003206,123.8994844,
OpenStreetMap,Lagkaw,restaurant,,,10.3765679,123.6419137,
OpenStreetMap,Lebumfacil - Veloso Park,attraction,,,10.3577724,123.6131452,
OpenStreetMap,Gold's Gym,fitness_centre,,,10.3129069,123.8946029,
OpenStreetMap,Bato Cemetery,memorial,,,10.3479555,123.5942802,
OpenStreetMap,Deckons store,restaurant,,,10.2584175,123.8590748,
OpenStreetMap,TCH Bar & Grill,restaurant,,,10.4146421,123.8485308,
OpenStreetMap,Roadside Cafe,cafe,,,10.3017992,123.8984578,
OpenStreetMap,CEBU HI-Q,artwork,,,10.3904061,124.0016756,
OpenStreetMap,Kanna Coffee and Tea,cafe,,,10.3040923,123.912913,
OpenStreetMap,SUNBERRY HOMES,apartment,,,10.3005872,124.001909,
OpenStreetMap,MACTAN PLAINS,apartment,,,10.3051501,124.0111001,
OpenStreetMap,White House Apartment,apartment,,,10.3189342,123.9709466,
OpenStreetMap,Redgate Pizzeria,restaurant,,,10.3102605,123.9037336,
OpenStreetMap,Win's Pension House,hotel,,,10.3084193,123.901287,
OpenStreetMap,Amethyst Boutique Hotel Cebu,hotel,,,10.3172618,123.8895146,
OpenStreetMap,Immersion Hotel and Dive Resort,hotel,,,11.3271771,124.1146363,
OpenStreetMap,Bamboozers Bar,bar,,,10.3112282,123.8987391,
OpenStreetMap,Cabatino's Residence,guest_house,,,10.2913715,123.8836023,
OpenStreetMap,INJ Residences,apartment,,,10.3388317,123.9261129,
OpenStreetMap,Parque de Paulin,camp_site,,,10.4744491,123.7068162,
OpenStreetMap,Quady’s,bar,,,10.3066199,123.9024788,
OpenStreetMap,8th Street Hostel,hostel,,,10.2936666,123.9040447,
OpenStreetMap,Tea Tah Pastries and Drinks,cafe,,,10.3470185,123.9270314,
OpenStreetMap,Centennial Homes,apartment,,,10.3189973,123.9170974,
OpenStreetMap,I Love Siomai,restaurant,,,10.1428555,124.2946288,
OpenStreetMap,Willterrence Guest House,guest_house,,,11.1616473,123.8041118,
OpenStreetMap,Choobi Choobi,restaurant,,,10.3042095,123.9118683,
OpenStreetMap,Kogi Q,restaurant,,,10.3113996,123.9177809,
OpenStreetMap,Choobi Choobi,restaurant,,,10.3114672,123.9177212,
OpenStreetMap,Kogi Q SM Seaside City,restaurant,,,10.2818953,123.8802826,
OpenStreetMap,Hiker's Haven,camp_site,,,10.3578993,123.8361297,
OpenStreetMap,Sachi,restaurant,,,10.3150312,123.8835646,
OpenStreetMap,Island Tea Cafe,cafe,,,10.3149925,123.883292,
OpenStreetMap,Little India,restaurant,,,10.3151059,123.8841373,
OpenStreetMap,RedDoorz Logarta street,hotel,,,10.2958294,123.9041627,
OpenStreetMap,Music One KTV,cafe,,,10.328584,123.9060444,
OpenStreetMap,Zendy Toston Shelter,attraction,,,10.1051896,124.1394199,
OpenStreetMap,Delilah Toston Store,viewpoint,,,10.1047306,124.1385871,
OpenStreetMap,Alfhiem hotel,hotel,,,10.2784044,123.9927794,
OpenStreetMap,DDJ’s Place,guest_house,,,10.373812,123.9240824,
OpenStreetMap,BKG VAPE SHOP,cafe,,,10.9573858,123.3017986,
OpenStreetMap,Traditional Thai Restaurant,restaurant,,,11.327833,124.1136534,
OpenStreetMap,amigos,bar,,,10.286427,123.998168,
OpenStreetMap,A Mesa,restaurant,,,10.284194,123.9948931,
OpenStreetMap,Painted man,internet_cafe,,,10.3023883,123.900618,
OpenStreetMap,White stop,cafe,,,10.301864,123.901244,
OpenStreetMap,Yahay Food Hub,restaurant,,,10.2590152,123.826643,
OpenStreetMap,Midwest Seafood and Grill,restaurant,,,10.3834591,123.6464013,
OpenStreetMap,Beau tea Laboba Torycafe,cafe,,,10.2980169,123.895124,
OpenStreetMap,Lady M,restaurant,,,10.3041738,123.8988599,
OpenStreetMap,Gabi Spa,hotel,,,10.2668759,123.9646757,
OpenStreetMap,mikes burger and beer,restaurant,,,10.4853398,123.4120971,
OpenStreetMap,Zupremo Bar and Restaurant,restaurant,,,10.2723985,123.8474511,
OpenStreetMap,Tom N Toms,cafe,,,10.2980093,123.9640051,
OpenStreetMap,Bo's Coffee,cafe,,,10.3022717,123.9624075,
OpenStreetMap,Coffee Hub,cafe,,,10.2997385,123.978671,
OpenStreetMap,Murals Hostel & Cafe,hostel,,,10.2918968,123.9695533,
OpenStreetMap,Honey’s Ladies Dorm,apartment,,,10.3548077,123.914768,
OpenStreetMap,2any1 Cafe,cafe,,,10.3398523,123.9252553,
OpenStreetMap,RedDoorz Moriyama Hotel,hotel,,,10.3388879,123.9281139,
OpenStreetMap,Eataliano's,restaurant,,,10.3505454,123.9136122,
OpenStreetMap,Seafood Paradise,restaurant,,,10.2810459,123.8821565,
OpenStreetMap,The Coffee Bean & Tea Leaf,cafe,,,10.3317906,123.9090832,
OpenStreetMap,Orongan Beach Club,viewpoint,,,11.0213586,123.9066485,
OpenStreetMap,UCC Clockwork,cafe,,,10.3260939,123.9174243,
OpenStreetMap,Lake Bensis Registration Area,information,,,10.3495245,123.7653346,
OpenStreetMap,The Flying Fish Boutique Hostel,hostel,,,10.3414748,123.9130624,
OpenStreetMap,Dr. Jose P. Rizal Monument,memorial,,,11.1668898,123.7186771,
OpenStreetMap,AT White House & Sunset Bar,bar,,,11.3405056,124.1132183,
OpenStreetMap,Coffee Bay,cafe,,,10.3292071,123.9058116,
OpenStreetMap,Cebu Memorial Park Entrance Gate,memorial,,,10.3398864,123.9130107,
OpenStreetMap,Paul John & Micmic Commercial Space,guest_house,,,10.2710012,123.945979,
OpenStreetMap,GloJam Hotel,hotel,,,10.2944777,123.8942351,
OpenStreetMap,green Field sitio,apartment,,,10.3445133,123.9236972,
OpenStreetMap,"Rajah Townhouse Pagsabungan, Mandaue City",guest_house,,,10.3611797,123.9458315,
OpenStreetMap,Casa Isabel,hostel,,,11.1536467,123.8050852,
OpenStreetMap,Gentlemen,cafe,,,10.3797844,123.9648189,
OpenStreetMap,Ikasig,viewpoint,,,10.2718985,123.9821994,
OpenStreetMap,Gumamilla,viewpoint,,,10.3083351,124.0061908,
OpenStreetMap,Lot amigo,guest_house,,,10.7175887,123.5054409,
OpenStreetMap,Home 1,guest_house,,,10.7135583,123.5143415,
OpenStreetMap,WILD WILD WEST COWBOY GRILL,restaurant,,,10.5149074,123.7114973,
OpenStreetMap,Barili ATV Adventure,attraction,,,10.1129212,123.5441708,
OpenStreetMap,Welcome to Calatrava,boundary_stone,,,10.5220981,123.4387425,
OpenStreetMap,Welcome to Calatrava,boundary_stone,,,10.6822722,123.4925833,
OpenStreetMap,Welcome to Escalante City,boundary_stone,,,10.7601743,123.4871291,
OpenStreetMap,Escalante City boundary arc,boundary_stone,,,10.8635314,123.4784725,
OpenStreetMap,Highway Boundary (Negros Occ./Or.),boundary_stone,,,10.3804301,123.3350758,
OpenStreetMap,Balay na Red,guest_house,,,10.7984402,123.4953514,
OpenStreetMap,David Kindle Fire,camp_site,,,10.794355,123.4924708,
OpenStreetMap,Manga Camp,camp_site,,,10.8344065,123.5007129,
OpenStreetMap,Rai Rai Ken,restaurant,,,10.3798148,123.9648001,
OpenStreetMap,Chicka-an,restaurant,,,10.3798517,123.96478,
OpenStreetMap,Dimsum Break,restaurant,,,10.3800707,123.9648484,
OpenStreetMap,Classic Savory,restaurant,,,10.3801248,123.9648283,
OpenStreetMap,Kuya J,restaurant,,,10.3801749,123.9648055,
OpenStreetMap,Jonies,restaurant,,,10.3802198,123.9647813,
OpenStreetMap,SEOUL,restaurant,,,10.3802594,123.9647532,
OpenStreetMap,Pochero Kinaraan,restaurant,,,10.321314,123.9136526,
OpenStreetMap,Gate 5 Pochero House,restaurant,,,10.3299725,123.9034618,
OpenStreetMap,Christ the King Monument,memorial,,,11.1664677,123.7189643,
OpenStreetMap,La Familia Beach Resort & Cottage,guest_house,,,10.8469839,123.8730902,
OpenStreetMap,Durhan Beach Resort,guest_house,,,10.846715,123.8730193,
OpenStreetMap,PH07000305,information,,,10.2626023,123.9791124,
OpenStreetMap,FIRST FIVE FOOD STOP,restaurant,,,10.3926649,124.0012034,
OpenStreetMap,Laida’s Hotel,hotel,,,10.8406747,123.4976744,
OpenStreetMap,Seda Ayala Malls Central Bloc,hotel,,,10.3304713,123.9067095,
OpenStreetMap,Indios Restobar & Eat all you can,bar,,,10.3139846,123.8906047,
OpenStreetMap,Calero Memorial Estates - Cebu,memorial,,,10.3702131,123.9966733,
OpenStreetMap,Sergio Osmeña Sr.,memorial,,,10.3165052,123.8904811,
OpenStreetMap,F. Yongco Apartment,apartment,,,10.3238215,123.9158721,
OpenStreetMap,Noy's Yellow Chicken,restaurant,,,10.3223528,123.9135605,
OpenStreetMap,San Carlos Borromeo,memorial,,,10.2997465,123.8985655,
OpenStreetMap,Golden Valley Hotel,hotel,,,10.2988997,123.8986045,
OpenStreetMap,Cossy Building,apartment,,,10.3377222,123.9058084,
OpenStreetMap,Golden Sands,beach_resort,,,11.2787976,124.0470881,
OpenStreetMap,Manang's Cafe,restaurant,,,10.3031613,123.8929676,
OpenStreetMap,2nd Bridge,viewpoint,,,10.3258788,123.967111,
OpenStreetMap,Bastap Food & Grill,restaurant,,,10.5976065,124.0205914,
OpenStreetMap,Unkle Crumbs,restaurant,,,10.2795455,123.9883352,
OpenStreetMap,Toledo City Tourist Inn,guest_house,,,10.3761175,123.6342764,
OpenStreetMap,Zamora Dam,memorial,,,10.0947294,124.289932,
OpenStreetMap,Marden's Beach & Cottages,beach_resort,,,10.0808664,124.102855,
OpenStreetMap,CREST Training Center (Practicum Site),viewpoint,,,10.6219389,124.0266059,
OpenStreetMap,Lapu-Lapu Cebu Cakes,cafe,,,10.2814814,123.9690101,
OpenStreetMap,Wingsylicious,restaurant,,,10.2846155,123.9681856,
OpenStreetMap,Ferdinand Magellan’s Death,memorial,,,10.3108112,124.0155099,
OpenStreetMap,Real Imagination Garden Center,attraction,,,10.392753,124.0013024,
OpenStreetMap,Piodena residence,guest_house,,,11.1568326,123.8047669,
OpenStreetMap,Cave Cafe x 820 General Merchandise,cafe,,,10.3122686,123.9031237,
OpenStreetMap,Chixboy BBQ,restaurant,,,10.3674785,123.8730416,
OpenStreetMap,Concha's Residence,apartment,,,10.2966463,123.8665226,
OpenStreetMap,Concha's,apartment,,,10.2968392,123.8674091,
OpenStreetMap,Buko Stop,cafe,,,10.4197176,123.9050516,
OpenStreetMap,Bai Vin's Kapihan og Tambayan,cafe,,,10.3675698,123.8779336,
OpenStreetMap,Ricardo concha,apartment,,,10.2965073,123.8709496,
OpenStreetMap,Tom N Toms,cafe,,,10.3109927,124.0186062,
OpenStreetMap,32 Italian Deli & Kitchen,restaurant,,,10.3110286,124.0188136,
OpenStreetMap,Europa Mansionette Inn,guest_house,,,10.3483504,123.9248922,
OpenStreetMap,The MARK's resort,hotel,,,10.3105835,124.02329,
OpenStreetMap,ChickMai's Food Hub,restaurant,,,10.3734756,123.9573067,
OpenStreetMap,Azienda Gracia Farm,hotel,,,10.4293407,123.8733208,
OpenStreetMap,Ma. Linas Catering Service,restaurant,,,10.2980856,123.8700291,
OpenStreetMap,Driptea,cafe,,,10.4035746,123.9990452,
OpenStreetMap,Inato sa Pinamungajan,restaurant,,,10.2923259,123.5870997,
OpenStreetMap,Casa Tarcela,attraction,,,10.1760504,123.6827115,
OpenStreetMap,Chef Joshua's Kitchen,cafe,,,10.3184634,123.8852746,
OpenStreetMap,Camp Kan-irag,camp_site,,,10.3999883,123.8719066,
OpenStreetMap,Mans Internet Cafe,internet_cafe,,,11.2968425,123.7360908,
OpenStreetMap,Recelle,apartment,,,11.2968635,123.7360144,
OpenStreetMap,Ample Garden,garden,,,10.2792376,123.9648381,
OpenStreetMap,La Vie in the Sky,bar,,,10.3725809,123.870815,
OpenStreetMap,La Vie in the Sky,viewpoint,,,10.372756,123.8708489,
OpenStreetMap,Krj Tourists’ Inn,hotel,,,11.1529684,123.8047732,
OpenStreetMap,Rielt maritime,hotel,,,10.3159787,123.9606382,
OpenStreetMap,Camp Maximo,restaurant,,,10.320809,123.7810684,
OpenStreetMap,Kan-anan ni Tatay,restaurant,,,10.3199434,123.78087,
OpenStreetMap,Seafood sa Bukid,restaurant,,,10.3172385,123.7641936,
OpenStreetMap,Altitude,restaurant,,,10.3175145,123.7645586,
OpenStreetMap,EsKamBai,restaurant,,,10.3172851,123.7646971,
OpenStreetMap,Isawan Sa Pantalan,restaurant,,,10.1596434,123.709902,
OpenStreetMap,de los Reyes Foods,restaurant,,,10.2941894,123.8961208,
OpenStreetMap,Heirloom,cafe,,,10.3411533,123.7823725,
OpenStreetMap,LUTAK KANGWAYAN,camp_site,,,11.2462209,123.7356233,
OpenStreetMap,JUDELYN,guest_house,,,11.2464559,123.7372758,
OpenStreetMap,San Carlos Park Marina,park,,,10.4832269,123.4243513,
OpenStreetMap,A Better Sip Milktea,cafe,,,10.3158981,123.899918,
OpenStreetMap,Makoy's Belly-chon,restaurant,,,11.0502427,124.0065265,
OpenStreetMap,Estino Milk Station,cafe,,,10.1143024,123.5607156,
OpenStreetMap,Tan-awan Oblesque,viewpoint,,,10.1284051,123.5991656,
OpenStreetMap,STC Folklife Museum,museum,,,10.3124402,123.8966272,
OpenStreetMap,Playground for STCC kindergarten,playground,,,10.3119795,123.8954961,
OpenStreetMap,Sacred Heart of Jesus Statue,artwork,,,10.1368826,123.6576614,29.2-meter statue
OpenStreetMap,Ethan's Garden,garden,,,10.2629637,123.8634982,
OpenStreetMap,Guizo,restaurant,,,10.2545677,123.8576023,
OpenStreetMap,El Mar Resort and Spa Restaurant,restaurant,,,10.7985453,124.0326554,
OpenStreetMap,El Mar Resort and Spa,hotel,,,10.7929524,124.0319057,
OpenStreetMap,Choobi Choobi,restaurant,,,10.3252024,123.9351277,
OpenStreetMap,Crossing,cafe,,,10.332803,123.9443415,
OpenStreetMap,Gullas Drive,attraction,,,10.2459237,123.7759773,
OpenStreetMap,MSDEA Ornamental Farm,resort,,,10.3980209,123.8509532,
OpenStreetMap,Villa Isaiah,resort,,,10.3918225,123.8563161,
OpenStreetMap,The Camp,camp_site,,,10.3752001,123.8355686,
OpenStreetMap,Alexis Guitar & Furniture,guest_house,,,11.1422496,124.0257052,
OpenStreetMap,Foodfiesta.ph,cafe,,,10.2948844,123.8699339,
OpenStreetMap,Cebu,memorial,,,10.2934208,123.9022613,
OpenStreetMap,Drizzle Tea Cafè,cafe,,,10.7271849,123.8271964,
OpenStreetMap,"Hilltop, M.Y. Village",viewpoint,,,11.1710474,123.7297131,
OpenStreetMap,Tempteation Corner,cafe,,,10.3088475,123.8907768,Milktea Shop
OpenStreetMap,Concha Residence,attraction,,,10.2968507,123.8662658,
OpenStreetMap,Sugba ta Bai,restaurant,,,10.1662281,123.7099619,
OpenStreetMap,Paseo de Amores,guest_house,,,10.3064641,123.9543907,
OpenStreetMap,Dad Roque House,guest_house,,,10.30445,123.9529417,
OpenStreetMap,Tres de Abril Marker,memorial,,,10.2977801,123.8850828,
OpenStreetMap,Ang Madugong Linggo ng Palaspas 1898,memorial,,,10.2968056,123.8886984,
OpenStreetMap,Kape Anceno Antigo,cafe,,,10.4850211,123.4238312,Coffee Shop with antique collection of the owner. The cafe is near the Peoples' Park which is only few meters from the gate.
OpenStreetMap,Uptown Residences,apartment,,,10.3084041,123.8867919,
OpenStreetMap,Judge Andres Borromeo,memorial,,,10.2948031,123.8976564,
OpenStreetMap,Regul's Bistro,cafe,,,10.2960291,123.8949382,
OpenStreetMap,Red Doorz,hotel,,,10.2960403,123.894913,
OpenStreetMap,Cebu Downtown Hotel,hotel,,,10.2968175,123.9019793,
OpenStreetMap,Travelbee.ph,hotel,,,10.3098078,123.8994782,
OpenStreetMap,Golden Valley Hotel,hotel,,,10.2988601,123.8984844,
OpenStreetMap,Monteclaros Pension House,guest_house,,,10.3004131,123.8979708,
OpenStreetMap,U.S.D.A. Dormitory Hotel,hostel,,,10.2988179,123.8981344,
OpenStreetMap,The Good Cup,cafe,,,10.3068192,123.896859,
OpenStreetMap,Saint Mary's Dormitory,hostel,,,10.3066938,123.8963909,
